PLANT_NAME,PLANT_DESIGN_CAPACITY_MWE,PLANT_COUNTRY,PLANT_STATE,TYPE,PLANT_OVERALL_RATING,PLANT_LATITUDE,PLANT_LONGITUDE,geopoint,PLANT_TYPE_OF_PLANT,PLANT_USED_FOR,PLANT_LOCATION,TOPIC
Aschach Hydroelectric Power Plant Austria,287,Austria,Upper Austria,HYDRO,Environmentally Responsible,48.3853,14.023,"48.3853, 14.023",Dam with run-of-river generation,Base Load,"Aschach, Upper Austria, Austria",POWERPLANTS
Abwinden-Asten Hydroelectric Power Plant Austria,168,Austria,Upper Austria,HYDRO,Environmentally Responsible,48.24798,14.4305,"48.24798, 14.4305",Barrage with run-of-river Generation,Base Load,"Abwinden-Asten, Upper Austria, Austria",POWERPLANTS
Vermunt Hydroelectric Power Plant Austria,157,Austria,Vorarlberg,HYDRO,Environmentally Responsible,46.9688,10.0558,"46.9688, 10.0558",Water discharged from another project,Intermediate Load,"Partenen, Vorarlberg, Austria",POWERPLANTS
Zongo Hydroelectric Power Plant Bolivia,11,Bolivia,La Paz,HYDRO,Environmentally Responsible,-16.2719,-68.1227,"-16.2719, -68.1227",Dam on river with reservoir,,"Huayna Potasi, La Paz, Bolivia",POWERPLANTS
Cahua Hydroelectric Power Plant Bolivia,30,Bolivia,La Paz,HYDRO,Environmentally Responsible,-16.04561,-67.9939,"-16.04561, -67.9939",Water discharged from another project,,"Huayna Potasi, La Paz, Bolivia",POWERPLANTS
Mostar Hydroelectric Power Plant Bosnia and Herzegovina,75,Bosnia and Herzegovina,Federation of Bosnia and Herzegovina,HYDRO,Environmentally Responsible,43.3776,17.8449,"43.3776, 17.8449",Dam on river with reservoir,Seasonal: Base,"Mostar, Herzegovina-Neretva, Bosnia and Herzegovina",POWERPLANTS
Jablanica Hydroelectric Power Plant Bosnia and Herzegovina,180,Bosnia and Herzegovina,Federation of Bosnia and Herzegovina,HYDRO,Environmentally Responsible,43.692406,17.732527,"43.692406, 17.732527",Dam on river with reservoir,,"Jablanica, Herzegovina-Neretva, Bosnia and Herzegovina",POWERPLANTS
Pec Mlini Hydroelectric Power Plant Bosnia and Herzegovina,30,Bosnia and Herzegovina,Federation of Bosnia and Herzegovina,HYDRO,Environmentally Responsible,43.3375,17.3261,"43.3375, 17.3261",,,"Grude, Federation of Bosnia and Herzegovina, Bosnia and Herzegovina",POWERPLANTS
Trebinje II Hydroelectric Power Plant Bosnia and Herzegovina,8,Bosnia and Herzegovina,Srpska,HYDRO,Environmentally Responsible,42.70664,18.3805,"42.70664, 18.3805",Dam on river with reservoir,,"4km upstream from Trebinje, Srpska, Bosnia and Herzegovina",POWERPLANTS
Krupa Hydroelectric Power Plant Bosnia and Herzegovina,48.5,Bosnia and Herzegovina,Srpska,HYDRO,Environmentally Responsible,44.5624,17.135,"44.5624, 17.135",Dam on river with reservoir,,"Krupa, Srpska, Bosnia and Herzegovina",POWERPLANTS
Balbina Dam Hydroelectric Power Plant Brazil,250,Brazil,Amazonas,HYDRO,Environmentally Responsible,-1.91722,-59.473611,"-1.91722, -59.473611",Dam on river with reservoir,,"Manaus, Amazonas, Brazil",POWERPLANTS
Sobradinho Hydroelectric Power Plant Brazil,1050,Brazil,Bahia,HYDRO,Environmentally Responsible,-9.4316,-40.8278,"-9.4316, -40.8278",Dam on river with reservoir,,"Petrolina, Bahia, Brazil",POWERPLANTS
Serra da Mesa (Sao Felix) Hydroelectric Power Plant Brazil,1275,Brazil,Goias,HYDRO,Environmentally Responsible,-13.83417,-48.30444,"-13.83417, -48.30444",,,"Minacu, Goias, Brazil",POWERPLANTS
Mascarenhas de Moraes (Peixoto) Hydroelectric Power Plant Brazil,476,Brazil,Minas Gerais,HYDRO,Environmentally Responsible,-20.2861,-47.0646,"-20.2861, -47.0646",Dam on river with reservoir,,"Ibiraci, Minas Gerais, Brazil",POWERPLANTS
Miranda Hydroelectric Power Plant Brazil,408,Brazil,Minas Gerais,HYDRO,Environmentally Responsible,-18.909,-48.0425,"-18.909, -48.0425",Dam on river with reservoir,,"East of Uberlandia, Minas Gerais, Brazil",POWERPLANTS
Tucurui Hydroelectric Power Plant Brazil,8370,Brazil,Para,HYDRO,Environmentally Responsible,-3.831667,-49.646667,"-3.831667, -49.646667",Dam on river with reservoir,,"Tucurui, Para, Brazil",POWERPLANTS
Ita Hydroelectric Power Plant Brazil,1450,Brazil,Rio Grande do Sul,HYDRO,Environmentally Responsible,-27.283,-52.3906,"-27.283, -52.3906",Dam on river with reservoir,Base Load,"Ita, On the border of Santa Catarina and Rio Grande do Sul, Brazil",POWERPLANTS
Itauba Hydroelectric Power Plant Brazil,500,Brazil,Rio Grande do Sul,HYDRO,Environmentally Responsible,-29.2618,-53.2362,"-29.2618, -53.2362",Dam on river with reservoir,,"Pinhal Grande, Rio Grande do Sul, Brazil",POWERPLANTS
Santo Antonio Hydroelectric Power Plant Brazil,859.2,Brazil,Rondonia,HYDRO,Environmentally Responsible,-8.8,-63.9515,"-8.8, -63.9515",Dam with run-of-river generation,Base Load,"Porto Velho, Rondonia, Brazil",POWERPLANTS
Agua Vermelha Hydroelectric Power Plant Brazil,1396,Brazil,Sao Paulo,HYDRO,Environmentally Responsible,-19.8641,-50.3472,"-19.8641, -50.3472",Dam on river with reservoir,Base Load,"near Iturama in Minas Gerais/Sao Paulo, Brazil",POWERPLANTS
Eng Souza Dias (Jupia) Hydroelectric Power Plant Brazil,1551.2,Brazil,Sao Paulo,HYDRO,Environmentally Responsible,-20.77778,-51.629167,"-20.77778, -51.629167",Dam on river with reservoir,,"Tres Lagoas, Sao Paulo, Brazil",POWERPLANTS
Paraibuna Hydroelectric Power Plant Brazil,85,Brazil,Sao Paulo,HYDRO,Environmentally Responsible,-23.4126,-45.6026,"-23.4126, -45.6026",Dam on river with reservoir,Intermediate Load,"Sao Paulo, Brazil",POWERPLANTS
Lucas Nogueira Garcez (Salto Grande) Hydroelectric Power Plant Brazil,74,Brazil,Sao Paulo,HYDRO,Environmentally Responsible,-22.9043,-49.9986,"-22.9043, -49.9986",Dam with run-of-river generation,,"Sao Paulo, Brazil",POWERPLANTS
Bariri Hydroelectric Power Plant Brazil,136.8,Brazil,Sao Paulo,HYDRO,Environmentally Responsible,-22.1538,-48.7537,"-22.1538, -48.7537",Dam on river with reservoir,,"Bariri, Sao Paulo, Brazil",POWERPLANTS
Estreito Hydroelectric Power Plant Brazil,1087,Brazil,Tocantins,HYDRO,Environmentally Responsible,-6.588,-47.4646,"-6.588, -47.4646",Dam on river with reservoir,,"Estreito, On the border of the states of Tocantins and Maranhao, Brazil",POWERPLANTS
Sao Salvador Hydroelectric Power Plant Brazil,243,Brazil,Tocantins,HYDRO,Environmentally Responsible,-12.8151,-48.237,"-12.8151, -48.237",Dam on river with reservoir,,"Sao Salvador, Tocantins, Brazil",POWERPLANTS
Aleko Hydroelectric Power Plant Bulgaria,66,Bulgaria,Pazardzhik,HYDRO,Environmentally Responsible,42.1194,24.289,"42.1194, 24.289",Water discharged from another project,Peaking Load and Backup,"Aleko Konstantinovo, Pazardzhik, Bulgaria",POWERPLANTS
Krichim Hydroelectric Power Plant Bulgaria,80,Bulgaria,Plovdiv,HYDRO,Environmentally Responsible,41.99178,24.468033,"41.99178, 24.468033",Dam on river with reservoir,Peaking Load and Backup,"18km from Krichim, Plovdiv, Bulgaria",POWERPLANTS
Kamchay Hydroelectric Power Plant Cambodia,193,Cambodia,Kampot,HYDRO,Environmentally Responsible,10.7045,104.1175,"10.7045, 104.1175",Dam on river with reservoir,,"Bokor National Park (BNP), Kampot, Cambodia",POWERPLANTS
Edea Hydroelectric Power Plant Cameroon,264,Cameroon,Littoral,HYDRO,Environmentally Responsible,3.8113,10.1292,"3.8113, 10.1292",,,"Littoral, Cameroon",POWERPLANTS
Ash River Hydroelectric Power Plant Canada,28,Canada,British Columbia,HYDRO,Environmentally Responsible,49.3738,-125.1509,"49.3738, -125.1509",Dam on river with reservoir,,"Central Vancouver Island, Regional District of Alberni-Clayoquot",POWERPLANTS
Ladore Hydroelectric Generating Station Canada,47,Canada,British Columbia,HYDRO,Environmentally Responsible,50.01723,-125.3929,"50.01723, -125.3929",Dam on river with reservoir,,Vancouver Island/ British Columbia,POWERPLANTS
Ruskin Hydroelectric Generating Station Canada,105.6,Canada,British Columbia,HYDRO,Environmentally Responsible,49.1958,-122.4076,"49.1958, -122.4076",Dam on river with reservoir,,"Ruskin, British Columbia, Canada",POWERPLANTS
Wahleach Generating Station Canada,63,Canada,British Columbia,HYDRO,Environmentally Responsible,49.236556,-121.680556,"49.236556, -121.680556",,,,POWERPLANTS
Mica Creek Hydroelectric Power Plant Canada,1804,Canada,British Columbia,HYDRO,Environmentally Responsible,52.077,-118.5664,"52.077, -118.5664",Dam on river with reservoir,,"135 km N of Revelstoke, British Columbia, Canada",POWERPLANTS
Seven Mile Hydroelectric Power Plant Canada,805,Canada,British Columbia,HYDRO,Environmentally Responsible,49.03,-117.503,"49.03, -117.503",Dam on river with reservoir,,"Fruitvale, British Columbia, Canada",POWERPLANTS
Stave Falls Hydroelectric Power Plant Canada,90,Canada,British Columbia,HYDRO,Environmentally Responsible,49.2295,-122.3555,"49.2295, -122.3555",Dam on river with reservoir,,,POWERPLANTS
Alouette Hydroelectric Generating Station Canada,9,Canada,British Columbia,HYDRO,Environmentally Responsible,49.3713,-122.31313,"49.3713, -122.31313",Dam on river with reservoir,,"16 km N of Stave Falls, British Columbia",POWERPLANTS
Kootenay Canal Hydroelectric Generating Station Canada,583,Canada,British Columbia,HYDRO,Environmentally Responsible,49.453,-117.5181,"49.453, -117.5181",Dam on river with reservoir,,"Midway between Nelson and Castlegar, British Colombia, Canada",POWERPLANTS
Lake Buntzen II Hydroelectric Generating Station Canada,26.7,Canada,British Columbia,HYDRO,Environmentally Responsible,49.3706,-122.8737,"49.3706, -122.8737",Dam on a lake,Peaking Load,"Buntzen Lake, British Columbia, Canada",POWERPLANTS
Clowhom Hydroelectric Generating Station Canada,33,Canada,British Columbia,HYDRO,Environmentally Responsible,49.7109,-123.5322,"49.7109, -123.5322",Dam on river with reservoir,Intermediate/Peak Load,"Sunshine Coast in south western British Columbia, Canada",POWERPLANTS
Great Falls Hydroelectric Generating Station Plant Canada,136,Canada,Manitoba,HYDRO,Environmentally Responsible,50.46308,-96.0067,"50.46308, -96.0067",Dam with run-of-river generation,,"Great Falls, Manitoba, Canada",POWERPLANTS
Jenpeg Hydroelectric Generating Station Canada,168,Canada,Manitoba,HYDRO,Environmentally Responsible,54.5438,-98.0277,"54.5438, -98.0277",Dam with run-of-river generation,,"Jenpeg, Manitoba, Canada",POWERPLANTS
Limestone Hydroelectric Generating Station Canada,1340,Canada,Manitoba,HYDRO,Environmentally Responsible,56.5079,-94.1099,"56.5079, -94.1099",Dam with run-of-river generation,,"Bird, Manitoba, Canada",POWERPLANTS
Pointe du Bois Hydroelectric Power Plant Canada,77,Canada,Manitoba,HYDRO,Environmentally Responsible,50.298,-95.5482,"50.298, -95.5482",Dam with run-of-river generation,,"Pointe du Bois, Manitoba, Canada",POWERPLANTS
Beechwood Hydroelectric Generating Station Canada,113,Canada,New Brunswick,HYDRO,Environmentally Responsible,46.5418,-67.6696,"46.5418, -67.6696",Dam with run-of-river generation,,"Beechwood, New Brunswick, Canada",POWERPLANTS
Tinker Hydro Generaton Station Canada,34.5,Canada,New Brunswick,HYDRO,Environmentally Responsible,46.80575104,-67.77380526,"46.8057510445, -67.7738052607",,,,POWERPLANTS
Grand Falls Hydroelectric Power Plant Canada,63,Canada,New Brunswick,HYDRO,Environmentally Responsible,47.051389,-67.74,"47.051389, -67.74",Dam with run-of-river generation,,,POWERPLANTS
Churchill Falls Hydroelectric Generating Station Canada,5429,Canada,Newfoundland and Labrador,HYDRO,Environmentally Responsible,53.52459478,-63.97270203,"53.524594783, -63.9727020264",Dam on river with reservoir,,"Churchill Falls, Newfoundland and Labrador, Canada",POWERPLANTS
Caribou Falls Hydroelectric Generating Station Canada,,Canada,Ontario,HYDRO,Environmentally Responsible,50.26191227,-94.97526169,"50.2619122694, -94.9752616882",,,,POWERPLANTS
Chats Falls Hydroelectric Generating Station Canada,96,Canada,Ontario,HYDRO,Environmentally Responsible,45.47397542,-76.24031067,"45.4739754229, -76.2403106689",,,,POWERPLANTS
Des Joachims Hydroelectric Generating Station Canada,432,Canada,Ontario,HYDRO,Environmentally Responsible,46.18101897,-77.69685745,"46.1810189733, -77.6968574524",,,,POWERPLANTS
Healey Falls Hydroelectric Generating Station Canada,15.7,Canada,Ontario,HYDRO,Environmentally Responsible,44.37147779,-77.77899742,"44.3714777936, -77.7789974213",Dam with run-of-river generation,,"8 km North of Campbellford, Ontario, Canada",POWERPLANTS
Hound Chute Hydroelectric Generating Station Canada,3.6,Canada,Ontario,HYDRO,Environmentally Responsible,47.3049894,-79.69752789,"47.3049894039, -79.6975278854",,,,POWERPLANTS
Lakefield Hydroelectric Generating Station Canada,2,Canada,Ontario,HYDRO,Environmentally Responsible,44.42098452,-78.27209473,"44.4209845201, -78.2720947266",,,,POWERPLANTS
South Falls Hydroelectric Generating Station Canada,5,Canada,Ontario,HYDRO,Environmentally Responsible,44.99278705,-79.20138359,"44.9927870476, -79.2013835907",,,,POWERPLANTS
Stewartville Hydroelectric Generating Station Canada,182,Canada,Ontario,HYDRO,Environmentally Responsible,45.40696218,-76.50670767,"45.4069621806, -76.5067076683",,,,POWERPLANTS
Kipling Hydroelectric Generating Station Canada,157,Canada,Ontario,HYDRO,Environmentally Responsible,50.1453,-82.2085,"50.1453, -82.2085",Dam on river with reservoir,Base/Intermediate Load,"93km North of Kapuskasing, Ontario, Canada",POWERPLANTS
Ear falls Hydroelectric Generating Station Canada,18.625,Canada,Ontario,HYDRO,Environmentally Responsible,50.6311,-93.2206,"50.6311, -93.2206",Dam on river with reservoir,,"Ear Falls, Ontario, Canada",POWERPLANTS
Indian Chutes Hydroelectric Generating Station Canada,3,Canada,Ontario,HYDRO,Environmentally Responsible,47.8402,-80.4484,"47.8402, -80.4484",Dam on river with reservoir,,"16km NW of Elk Lake, Ontario, Canada",POWERPLANTS
Red Rock Hydroelectric Generating Station Canada,41,Canada,Ontario,HYDRO,Environmentally Responsible,46.3153,-83.2902,"46.3153, -83.2902",Dam on river with reservoir,,"10 km West of Iron Bridge, Ontario, Canada",POWERPLANTS
Carillon Hydroelectric Generating Station Canada,752,Canada,Quebec,HYDRO,Environmentally Responsible,45.567489,-74.38310623,"45.5674889998, -74.3831062317",,,,POWERPLANTS
Chute-des-Chats Hydroelectric Generating Station Canada,79,Canada,Quebec,HYDRO,Environmentally Responsible,45.47373467,-76.23842239,"45.473734673, -76.2384223938",,,,POWERPLANTS
Grand-Mere Hydroelectric Generating Station Canada,105,Canada,Quebec,HYDRO,Environmentally Responsible,46.6137782,-72.6783371,"46.6137782015, -72.6783370972",,,,POWERPLANTS
Laforge-1 Hydroelectric Generating Station Canada,878,Canada,Quebec,HYDRO,Environmentally Responsible,54.16866486,-72.61490822,"54.1686648649, -72.6149082184",,,,POWERPLANTS
Laforge-2 Hydroelectric Generating Station Canada,319,Canada,Quebec,HYDRO,Environmentally Responsible,54.588889,-71.280556,"54.588889, -71.280556",,,,POWERPLANTS
Mitis-1 Hydroelectric Generating Station Canada,6.2,Canada,Quebec,HYDRO,Environmentally Responsible,48.60187109,-68.13609123,"48.601871091, -68.1360912323",,,,POWERPLANTS
Rocher-de-Rocher-de-Grand-Mere Hydroelectric Generating Station Canada,230,Canada,Quebec,HYDRO,Environmentally Responsible,46.61442674,-72.67816544,"46.6144267378, -72.6781654358",Dam with run-of-river generation,,"Grand Mere, Quebec, Canada",POWERPLANTS
Shawinigan-3 Hydroelectric Generating Station Canada,183.6,Canada,Quebec,HYDRO,Environmentally Responsible,46.53357998,-72.76560545,"46.5335799767, -72.7656054497",,,,POWERPLANTS
Outardes-3 Hydroelectric Power Plant Canada,1026,Canada,Quebec,HYDRO,Environmentally Responsible,49.5567,-68.7241,"49.5567, -68.7241",Dam with run-of-river generation,Base Load,"55 km northwest of Baie-Comeau, Quebec, Canada",POWERPLANTS
Peribonka Hydroelectric Power Plant Canada,405,Canada,Quebec,HYDRO,Environmentally Responsible,49.5078,-71.1831,"49.5078, -71.1831",Dam with run-of-river generation,Base Load,"Quebec, Canada",POWERPLANTS
Nipawin Hydroelectric Generating Station Canada,225,Canada,Saskatchewan,HYDRO,Environmentally Responsible,53.319,-104.0424,"53.319, -104.0424",Dam with run-of-river generation,,"Nipawin, Saskatchewan, Canada",POWERPLANTS
M'Bali Hydroelectric Power Plant CAR,,Central African Republic,Ombella-MPoko,HYDRO,Environmentally Responsible,4.9196,18.0018,"4.9196, 18.0018",Dam on river with reservoir,,"Near Vange, Ombella-MPoko, Central African Republic",POWERPLANTS
Boali II Hydroelectric Power Plant CAR,9.9,Central African Republic,Ombella-MPoko,HYDRO,Environmentally Responsible,4.881,18.0338,"4.881, 18.0338",Dam with run-of-river generation,,"E of Vange, Ombella-MPoko, Central African Republic",POWERPLANTS
Los Molles Hydroelectric Power Plant Chile,18,Chile,IV Region de Coquimbo,HYDRO,Environmentally Responsible,-30.7438,-70.5878,"-30.7438, -70.5878",Barrage with run-of-river Generation,,"IV Region de Coquimbo, Chile",POWERPLANTS
Alfalfal Hydroelectric Power Plant Chile,178,Chile,Region Metropolitana de Santiago,HYDRO,Environmentally Responsible,-33.501,-70.1931,"-33.501, -70.1931",Dam with run-of-river generation,,"Route G-345 Km 23, San Jos de Maipo, Chile",POWERPLANTS
Queltehues Hydroelectric Power Plant Chile,41,Chile,Region Metropolitana de Santiago,HYDRO,Environmentally Responsible,-33.8128,-70.2194,"-33.8128, -70.2194",Barrage with run-of-river Generation,,"San Jose de Maipo, Region Metropolitana de Santiago, Chile",POWERPLANTS
La Confluencia Hydroelectric Power Plant Chile,160,Chile,VI Region del Libertador General Bernardo OHiggins,HYDRO,Environmentally Responsible,-34.8338,-70.5535,"-34.8338, -70.5535",Barrage with run-of-river Generation,Base/Intermediate Load,"VI Region del Libertador General Bernardo OHiggins, Chile",POWERPLANTS
Curillinque Hydroelectric Power Plant Chile,89,Chile,VII Region del Maule,HYDRO,Environmentally Responsible,-35.8055,-70.9417,"-35.8055, -70.9417",Barrage with run-of-river Generation,,"VII Region del Maule, Chile",POWERPLANTS
Ralco Hydroelectric Power Plant Chile,690,Chile,VIII Region del Bio - Bio,HYDRO,Environmentally Responsible,-37.9992,-71.5196,"-37.9992, -71.5196",Dam on river with reservoir,Base/Intermediate Load,"VIII Region del Bio - Bio, Chile",POWERPLANTS
Peuchen Hydroelectric Power Plant Chile,85,Chile,VIII Region del Bio - Bio,HYDRO,Environmentally Responsible,-37.5412,-71.5963,"-37.5412, -71.5963",Dam with run-of-river generation,,"Santa Barbara district, VIII Region del Bio - Bio, Chile",POWERPLANTS
Central Hidroelectrica Rio Laja Chile,34.4,Chile,VIII Region del Bio - Bio,HYDRO,Environmentally Responsible,-37.24417,-72.52976,"-37.24417, -72.52976",Dam on river with reservoir,,"VIII Region del Bio - Bio, Chile",POWERPLANTS
Pilmaiquen Hydroelectric Power Plant Chile,40.8,Chile,X Region de los Lagos,HYDRO,Environmentally Responsible,-40.638,-72.6496,"-40.638, -72.6496",Dam with run-of-river generation,,"X Region de los Lagos, Chile",POWERPLANTS
Gaobazhou Hydroelectric Power Plant China,360,China,Hubei,HYDRO,Environmentally Responsible,30.3981,111.3412,"30.3981, 111.3412",Dam on river with reservoir,,"Yidu City, Zhicheng, Hubei Province, China",POWERPLANTS
Pankou Hydroelectric Power Plant China,513,China,Hubei,HYDRO,Environmentally Responsible,32.2127,110.1575,"32.2127, 110.1575",Dam on river with reservoir,Peaking Load,"Pankou Town, Zhushan County, Shiyan City, Hubei, China",POWERPLANTS
Hongshi Dam Hydroelectric Power Plant China,200,China,Jilin,HYDRO,Environmentally Responsible,42.9495,127.1313,"42.9495, 127.1313",Dam on river with reservoir,Intermediate/Peak Load,"Hongshi, Huadian, Jilin Province, China",POWERPLANTS
Tianhuangping Pumped Storage Power Plant China,1800,China,Zhejiang,HYDRO,Environmentally Responsible,30.4703,119.605833,"30.4703, 119.605833",Pumped Storage Power Plant,Peaking Load,"Tainhuangping, Anji County of Zhejiang Province, China",POWERPLANTS
Miel I (Patangoras) Hydroelectric Power Plant Colombia,396,Colombia,Caldas,HYDRO,Environmentally Responsible,5.56055,-74.8866,"5.56055, -74.8866",Dam on river with reservoir,,"Norcasia, Caldas, Colombia",POWERPLANTS
San Francisco Hydroelectric Power Plant Colombia,135,Colombia,Caldas,HYDRO,Environmentally Responsible,5.04993,-75.74298,"5.04993, -75.74298",Dam on river with reservoir,Peaking Load,"Caldas, Colombia",POWERPLANTS
Alto Anchicaya Hydroelectric Power Plant Colombia,365,Colombia,Valle del Cauca,HYDRO,Environmentally Responsible,3.5333,-76.8675,"3.5333, -76.8675",Dam on river with reservoir,,"Valle del Cauca, Columbia",POWERPLANTS
Alberto Echandi Hydroelectric Station Costa Rica,4.7,Costa Rica,Alajuela,HYDRO,Environmentally Responsible,10.391583,-84.4382721,"10.391583, -84.4382721",,,,POWERPLANTS
Penas Blancas Hydroelectric Power Plant Costa Rica,38,Costa Rica,Alajuela,HYDRO,Environmentally Responsible,10.391583,-84.4382721,"10.391583, -84.4382721",,,,POWERPLANTS
Toro II Hydroelectric Power Station Costa Rica,65.2,Costa Rica,Alajuela,HYDRO,Environmentally Responsible,10.222,-84.3058,"10.222, -84.3058",,,,POWERPLANTS
Avance,,Costa Rica,Cartago,HYDRO,Environmentally Responsible,9.7539596,-83.6773928,"9.7539596, -83.6773928",,,,POWERPLANTS
Birris #2,,Costa Rica,Cartago,HYDRO,Environmentally Responsible,9.7539596,-83.6773928,"9.7539596, -83.6773928",,,,POWERPLANTS
Rio Macho Hydroelectic Power Plant Costa Rica,120,Costa Rica,Cartago,HYDRO,Environmentally Responsible,9.7757,-83.8414,"9.7757, -83.8414",Dam with run-of-river generation,Base/Intermediate Load,"Valle de Orosi, Paraiso, Cartago, Costa Rica",POWERPLANTS
Corobici (Miguel Pablo Dengo) Hydroelectric Power Plant Costa Rica,180,Costa Rica,Guanacaste,HYDRO,Environmentally Responsible,10.4695,-85.0763,"10.4695, -85.0763",Water discharged from another project,Intermediate/Peak Load,"Canas, Guanacaste Costa Rica",POWERPLANTS
Brasil,,Costa Rica,San Jose,HYDRO,Environmentally Responsible,9.9402023,-84.1001885,"9.9402023, -84.1001885",,,,POWERPLANTS
Gojak Hydroelectric Power Plant Croatia Croatia,55.5,Croatia,Karlovacka,HYDRO,Environmentally Responsible,45.2989,15.2633,"45.2989, 15.2633",Dam with run-of-river generation,,"near Ogulin, Karlovac County, Croatia",POWERPLANTS
Lesce Hydroelectric Power Plant Croatia Croatia,42.3,Croatia,Karlovacka,HYDRO,Environmentally Responsible,45.3485,15.3452,"45.3485, 15.3452",Dam with run-of-river generation,,"Lesce, Karlovacka, Croatia",POWERPLANTS
Cakovec Hydroelectric Power Plant Croatia Croatia,76,Croatia,Medimurska,HYDRO,Environmentally Responsible,46.3113,16.4945,"46.3113, 16.4945",Dam with run-of-river generation,,"Orehovica, Ulica Nikole Tesle 31, Medimurska, Croatia",POWERPLANTS
Vinodol Hydroelectric Power System Croatia Croatia,90,Croatia,Primorsko-Goranska,HYDRO,Environmentally Responsible,45.2286,14.6736,"45.2286, 14.6736",Dam on river with reservoir,,"Primorsko-Goranska, Croatia",POWERPLANTS
Orlovac Hydroelectric Power Plant Croatia,237,Croatia,Splitsko-Dalmatinska,HYDRO,Environmentally Responsible,43.6737,16.784,"43.6737, 16.784",Dam on a lake,Peaking Load,"Sinj, Splitsko-Dalmatinska, Croatia",POWERPLANTS
Slapy Hydroelectric Power Plant Czech Republic,144,Czech Republic,Stredocesky,HYDRO,Environmentally Responsible,49.82354,14.434501,"49.82354, 14.434501",Dam on river with reservoir,,"Slapy, Stredocesky, Czech Republic",POWERPLANTS
Zongo Hydroelectric Power Plant Democratic Republic of the Congo,75,Democratic Republic of the Congo,Bas-Congo,HYDRO,Environmentally Responsible,-4.7779,14.9059,"-4.7779, 14.9059",Dam on river with reservoir,,"Near Kinshasa, Bas-Congo, Democratic Republic of the Congo",POWERPLANTS
Nseke Hydroelectric Power Plant Democratic Republic of the Congo,260,Democratic Republic of the Congo,Katanga,HYDRO,Environmentally Responsible,-10.30442,25.40678,"-10.30442, 25.40678",Dam on river with reservoir,Base Load,"North of Kolwezi, Katanga, Democratic Republic of the Congo",POWERPLANTS
Ruzizi I Hydroelectric Power Plant Democratic Republic of the Congo,29.2,Democratic Republic of the Congo,Sud-Kivu,HYDRO,Environmentally Responsible,-2.509005,28.87528,"-2.509005, 28.87528",Dam on a lake,Base Load,"Bukavu, South end of Lake Kivu, Sud-Kivu, Democratic Republic of the Congo",POWERPLANTS
Ruzizi II Hydroelectric Power Plant Democratic Republic of the Congo,42,Democratic Republic of the Congo,Sud-Kivu,HYDRO,Environmentally Responsible,-2.63344,28.90266,"-2.63344, 28.90266",Dam with run-of-river generation,Base Load,"Bukavu, South end of Lake Kivu, Sud-Kivu, Democratic Republic of the Congo",POWERPLANTS
Aswan High Dam Hydroelectric Power Plant Egypt,2100,Egypt,Aswan,HYDRO,Environmentally Responsible,23.97211,32.88285,"23.97211, 32.88285",Dam on river with reservoir,Seasonal: Base,"13 km south of Aswan, Egypt",POWERPLANTS
Esna (Isna) Hydroelectric Power Plant Egypt,86,Egypt,Qina,HYDRO,Environmentally Responsible,25.3177,32.5544,"25.3177, 32.5544",Dam with run-of-river generation,Seasonal: Base,"Esna, Qina, Egypt",POWERPLANTS
New Naga Hamadi Hydroelectric Station Egypt,64,Egypt,Qina,HYDRO,Environmentally Responsible,26.15220217,32.14530945,"26.1522021702, 32.1453094482",Barrage with run-of-river Generation,,"Nag Hammadi, 58 km W of Qina, Egypt",POWERPLANTS
Tis Abay I Hydroelectric Power Plant Ethiopia,11.4,Ethiopia,Amhara,HYDRO,Environmentally Responsible,11.48557609,37.58978605,"11.4855760897, 37.5897860527",Weir on a River,Base Load,"Chara Chara, Amhara, Ethiopia",POWERPLANTS
Tana Beles Hydroelectric Power Plant Ethiopia,460,Ethiopia,Amhara,HYDRO,Environmentally Responsible,11.8196,36.9181,"11.8196, 36.9181",Dam on a lake,Base Load,"Tana Lake, Amhara, Ethiopia",POWERPLANTS
Oraison Hydroelectric Power Station France,195,France,Alpes-de-Haute-Provence,HYDRO,Environmentally Responsible,43.921,5.925,"43.921, 5.925",Dam with run-of-river generation,,"Durance, Alpes-de-Haute-Provence, France",POWERPLANTS
Largue Hydroelectric Power Station France,12,France,Alpes-de-Haute-Provence,HYDRO,Environmentally Responsible,43.854,5.859,"43.854, 5.859",Dam with run-of-river generation,,"Manosque, Alpes-de-Haute-Provence, France",POWERPLANTS
Quinson Hydroelectric Power Station France,41,France,Alpes-de-Haute-Provence,HYDRO,Environmentally Responsible,43.699,6.051,"43.699, 6.051",Dam on river with reservoir,,"Quinson, Alpes-de-Haute-Provence, France",POWERPLANTS
Saint Dalmas Hydroelectric Power Station France,50,France,Alpes-Maritimes,HYDRO,Environmentally Responsible,44.047,7.586,"44.047, 7.586",Dam on a lake,,"Saint Dalmas, Alpes-Maritimes, France",POWERPLANTS
Revin Pump Storage Hydroelectric Power Station France,800,France,Ardennes,HYDRO,Environmentally Responsible,49.92537,4.614,"49.92537, 4.614",Pumped Storage Power Plant,Peaking Load and Backup,"Revin, Ardennes, France",POWERPLANTS
Aston Hydroelectric Power Station France,116,France,Ariege,HYDRO,Environmentally Responsible,42.777,1.677,"42.777, 1.677",Dam on a lake,,"Ax les Thermes, Arige, France",POWERPLANTS
Truel Hydroelectric Power Station France,27,France,Aveyron,HYDRO,Environmentally Responsible,44.06,2.769,"44.06, 2.769",Dam with run-of-river generation,,"Le Truel, Aveyron, France",POWERPLANTS
Gerstheim Hydroelectric Power Station France,141,France,Bas-Rhin,HYDRO,Environmentally Responsible,48.404,7.728,"48.404, 7.728",Dam with run-of-river generation,,"Erstein, Bas-Rhin, France",POWERPLANTS
Rhinau Hydroelectric Power Station France,152,France,Bas-Rhin,HYDRO,Environmentally Responsible,48.284,7.678,"48.284, 7.678",Dam with run-of-river generation,,"Rhinau, Bas-Rhin, France",POWERPLANTS
Gambsheim Hydroelectric Power Station France,108,France,Bas-Rhin,HYDRO,Environmentally Responsible,48.682,7.919,"48.682, 7.919",Dam with run-of-river generation,,"Strasbourg, Bas-Rhin, France",POWERPLANTS
L'Aigle Hydroelectric Generating Station France,360,France,Cantal,HYDRO,Environmentally Responsible,45.24343974,2.224774361,"45.243439744, 2.22477436066",,,,POWERPLANTS
Auzerette Hydroelectric Power Station France,29,France,Cantal,HYDRO,Environmentally Responsible,45.365,2.646,"45.365, 2.646",Dam on a lake,,"Bort les Orgues, Cantal, France",POWERPLANTS
Rhue (La) Hydroelectric Power Station France,12,France,Cantal,HYDRO,Environmentally Responsible,45.415,2.499,"45.415, 2.499",Dam on a lake,,"Bort les Orgues, Cantal, France",POWERPLANTS
Enchanet Hydroelectric Power Station France,35,France,Cantal,HYDRO,Environmentally Responsible,45.082,2.194,"45.082, 2.194",Dam on river with reservoir,,"Mauriac, Cantal, France",POWERPLANTS
Bort-les-Orgues Hydroelectric Generating Station France,216,France,Correze,HYDRO,Environmentally Responsible,45.41297268,2.497801781,"45.4129726814, 2.4978017807",,,,POWERPLANTS
Argentat Hydroelectric Power Station France,48,France,Correze,HYDRO,Environmentally Responsible,45.104,1.954,"45.104, 1.954",Dam on river with reservoir,,"Argentat, Correze, France",POWERPLANTS
Gour Noir (Le) Hydroelectric Power Station France,40,France,Correze,HYDRO,Environmentally Responsible,45.071,2.067,"45.071, 2.067",Dam on a lake,,"Argentat, Correze, France",POWERPLANTS
Val Beynette Hydroelectric Power Station France,30,France,Correze,HYDRO,Environmentally Responsible,45.416,2.372,"45.416, 2.372",Dam on a lake,,"Bort les Orgues, Correze, France",POWERPLANTS
Monceaux La Virolle Hydroelectric Power Station France,19,France,Correze,HYDRO,Environmentally Responsible,45.576,1.84,"45.576, 1.84",Dam on a lake,,"Uzerche, Correze, France",POWERPLANTS
Chateauneuf Du Rhone Hydroelectric Power Station France,295,France,Drame,HYDRO,Environmentally Responsible,44.499,4.708,"44.499, 4.708",Dam with run-of-river generation,,"Montelimar, Drome, France",POWERPLANTS
Kembs Hydroelectric Power Station France,156,France,Haut-Rhin,HYDRO,Environmentally Responsible,47.655,7.52,"47.655, 7.52",Dam with run-of-river generation,,"Village Neuf, Haut-Rhin, France",POWERPLANTS
Claux Hydroelectric Power Station France,13.5,France,Hautes-Alpes,HYDRO,Environmentally Responsible,44.876,6.48,"44.876, 6.48",Dam on a lake,,"Briancon, Hautes-Alpes, France",POWERPLANTS
Egets Hydroelectric Power Station France,37.3,France,Hautes-Pyrenees,HYDRO,Environmentally Responsible,42.955,0.565,"42.955, 0.565",Dam on a lake,,"Arreau, Hautes-Pyrenees, France",POWERPLANTS
Louron Hydroelectric Power Station France,49.3,France,Hautes-Pyrenees,HYDRO,Environmentally Responsible,42.79,0.41,"42.79, 0.41",Dam on a lake,,"Arreau, Hautes-Pyrnes, France",POWERPLANTS
Eguzon Hydroelectric Power Station France,72,France,Indre,HYDRO,Environmentally Responsible,46.455,1.613,"46.455, 1.613",Dam on river with reservoir,,"Argenton sur Creuse, Indre, France",POWERPLANTS
Grangent Hydroelectric Power Station France,37,France,Loire,HYDRO,Environmentally Responsible,45.467,4.248,"45.467, 4.248",Dam on river with reservoir,,"Saint Etienne, Loire, France",POWERPLANTS
Villerest Hydroelectric Power Station France,58,France,Loire,HYDRO,Environmentally Responsible,45.9869,4.04938,"45.9869, 4.04938",Dam on river with reservoir,,"Roanne, Loire, France",POWERPLANTS
Artouste Hydroelectric Power Station France,88,France,Pyrenees-Atlantiques,HYDRO,Environmentally Responsible,42.887,-0.411,"42.887, -0.411",Dam on a lake,,"Laruns, Pyrenees-Atlantiques, France",POWERPLANTS
Bathie (La) Hydroelectric Power Station France,510,France,Savoie,HYDRO,Environmentally Responsible,45.645,6.445,"45.645, 6.445",Dam on a lake,,"Albertville, Savoie, France",POWERPLANTS
Brens-Virigin Hydroelectric Power Station France,90,France,Savoie,HYDRO,Environmentally Responsible,45.725,5.698,"45.725, 5.698",Dam with run-of-river generation,,"Brens, Savoie, France",POWERPLANTS
Bathie (La) Hydroelectric Power Station France,546,France,Savoie,HYDRO,Environmentally Responsible,45.64467,6.44817,"45.64467, 6.44817",Dam on a lake,Intermediate/Peak Load,"Albertville, Savoie, France",POWERPLANTS
Vardnili I Hydroelectric Power Plant Georgia,220,Georgia,Abkhazia,HYDRO,Environmentally Responsible,42.6524,41.7619,"42.6524, 41.7619",Dam on river with reservoir,Base Load,"Gali, Abkhazia, Georgia",POWERPLANTS
Lajanuri Hydroelectric Power Plant Georgia,113,Georgia,Racha-Lochkhumi-Kvemo Svaneti,HYDRO,Environmentally Responsible,42.58898,42.8519,"42.58898, 42.8519",Dam with run-of-river generation,Intermediate/Peak Load,"Village Alpana, Tsageri, Lechkhumi, Georgia",POWERPLANTS
Goldisthal Pumped Storage Power Plant Germany,1060,Germany,Thuringia,HYDRO,Environmentally Responsible,50.5075,11.0049,"50.5075, 11.0049",Pumped Storage Power Plant,Peaking Load and Backup,"Thuringia, Germany",POWERPLANTS
Kpong Hydroelectric Project Ghana,160,Ghana,Eastern,HYDRO,Environmentally Responsible,6.12,0.126,"6.12, 0.126",Water discharged from another project,,"Akuse, Eastern, Ghana",POWERPLANTS
Mesochora Hydroelectric Power Plant Greece,162,Greece,Trikala,HYDRO,Environmentally Responsible,39.4644,21.3042,"39.4644, 21.3042",Dam on river with reservoir,,"Thessaly, Trkala, Greece",POWERPLANTS
Chixoy Hydroelectric Power Plant Guatemala,300,Guatemala,Alta Verapaz,HYDRO,Environmentally Responsible,15.28154,-90.49095,"15.28154, -90.49095",Dam on river with reservoir,,"QuixalAlta Verapaz, Guatemala",POWERPLANTS
Jurun Marinala Hydroelectric Power Plant Guatemala,60,Guatemala,Escuintla,HYDRO,Environmentally Responsible,14.38916,-90.710556,"14.38916, -90.710556",Dam with run-of-river generation,,"Agua Blanca, Escuintla, Guatemala",POWERPLANTS
Santa Maria Hydroelectric Power Plant Guatemala,6.88,Guatemala,Quetzaltenango,HYDRO,Environmentally Responsible,14.79622,-91.4603,"14.79622, -91.4603",Dam with run-of-river generation,Peaking Load,"Zunil, Quetzaltenango, Guatemala",POWERPLANTS
Kaleta Hydroelectric Power Plant Guinea,240,Guinea,Fria,HYDRO,Environmentally Responsible,10.4641,-13.281,"10.4641, -13.281",Dam on river with reservoir,,"Kaleta, Fria, Guinea",POWERPLANTS
Jose Cecilio del Valle (Nacaome) Hydroelectric Power Plant Honduras,30,Honduras,Francisco Morazan,HYDRO,Environmentally Responsible,13.6869,-87.3605,"13.6869, -87.3605",Dam on river with reservoir,Peaking Load,"Nacaome, Francisco Morazan, Honduras",POWERPLANTS
Kiskore Hydroelectric Power Plant Hungary,28,Hungary,Heves,HYDRO,Environmentally Responsible,47.49317,20.5157,"47.49317, 20.5157",Dam on river with reservoir,Peaking Load,"Kiskore, Heves, Hungary",POWERPLANTS
Karahnjukar (Fljotsdalur) Hydroelectric Power Plant Iceland,690,Iceland,Austurland,HYDRO,Environmentally Responsible,65.02748,-14.96881,"65.02748, -14.96881",Dam on river with reservoir,Base Load,"Austurland, Iceland",POWERPLANTS
Vatnesfell Hydroelectric Power Station Iceland,90,Iceland,Sudhurland,HYDRO,Environmentally Responsible,64.19655,-19.0342,"64.19655, -19.0342",Dam on river with reservoir,Seasonal: Base,"Sudhurland, Iceland",POWERPLANTS
Hrauneyjafoss Hydroelectric Power Station Iceland,210,Iceland,Sudhurland,HYDRO,Environmentally Responsible,64.20085,-19.24067,"64.20085, -19.24067",Dam on river with reservoir,Seasonal: Base,"Sudhurland, Iceland",POWERPLANTS
Nagarjuna Sagar Left Canal Hydroelectric Power Plant India,60,India,Andhra Pradesh,HYDRO,Environmentally Responsible,16.56972636,79.33885423,"16.5697263581, 79.3388542328",,,,POWERPLANTS
Nagarjuna Sagar Right Canal Hydroelectric Power Plant India,90,India,Andhra Pradesh,HYDRO,Environmentally Responsible,16.56972636,79.33885423,"16.5697263581, 79.3388542328",,,,POWERPLANTS
Priyadarshini Jruala Hydroelectric Power Plant India,234,India,Andhra Pradesh,HYDRO,Environmentally Responsible,16.3328,77.7036,"16.3328, 77.7036",Dam on river with reservoir,Intermediate/Peak Load,"SW of Amarchinta, Andhra Pradesh, India",POWERPLANTS
Lower Jurala Hydroelectric Power Plant India,240,India,Andhra Pradesh,HYDRO,Environmentally Responsible,16.31306,77.7772,"16.31306, 77.7772",Dam with run-of-river generation,,"Atmakur Mandal, Mahabubnagar district, Telangana, India",POWERPLANTS
Ranganadi I Hydro Power Plant India,405,India,Arunachal Pradesh,HYDRO,Environmentally Responsible,27.3426,93.8168,"27.3426, 93.8168",Dam with run-of-river generation,Intermediate/Peak Load,"Yazali, Lower Subansiri District, Arunachal Pradesh, India",POWERPLANTS
Nathpa Jhakri Hydro Electric Project India,1500,India,Himachal Pradesh,HYDRO,Environmentally Responsible,31.564,77.98,"31.564, 77.98",Dam on river with reservoir,Base Load,"Nathpa, District Kinnaur, Himachal Pradesh",POWERPLANTS
Larji Hydroelectric Power Project India,126,India,Himachal Pradesh,HYDRO,Environmentally Responsible,31.7196,77.212,"31.7196, 77.212",Dam with run-of-river generation,,"Upstream of Beas Dam, Mandi District, Himachal Pradesh",POWERPLANTS
Shanan (Uhl-I) Hydroelectric Power Station India,110,India,Himachal Pradesh,HYDRO,Environmentally Responsible,31.9894,76.8072,"31.9894, 76.8072",Dam with run-of-river generation,,"Brot Valley, Jogindernagar, Himachal Pradesh, India",POWERPLANTS
Bassi (Uhl-II) Hydroelectric Power Plant India,60,India,Himachal Pradesh,HYDRO,Environmentally Responsible,31.9546,76.7986,"31.9546, 76.7986",Water discharged from another project,Seasonal: Base,"Bassi, Himachal Pradesh, India",POWERPLANTS
Allain Duhangan Hydroelectric Power Plant India,192,India,Himachal Pradesh,HYDRO,Environmentally Responsible,32.2258,77.207,"32.2258, 77.207",Dam with run-of-river generation,Seasonal: Base,"Prini, Near Manali, Himachal Pradesh, India",POWERPLANTS
Baglihar Hydroelectric Power Project India,900,India,Jammu and Kashmir,HYDRO,Environmentally Responsible,33.18151,75.31546,"33.18151, 75.31546",Dam with run-of-river generation,Base Load,"Near Batote, Chanderkote ,Ramban District, Jammu and Kashmir, India",POWERPLANTS
Uri II Hydroelectric Power Plant India,240,India,Jammu and Kashmir,HYDRO,Environmentally Responsible,34.0921,74.03182,"34.0921, 74.03182",Dam with run-of-river generation,,"Uri, Baramullah, Jammu and Kashmir, India",POWERPLANTS
Almatti Hydro Power Plant India,290,India,Karnataka,HYDRO,Environmentally Responsible,16.33,75.8863,"16.33, 75.8863",Dam on river with reservoir,,"Bijapur District, Karnataka, India",POWERPLANTS
Gerusuppa Hydroelectric Power Plant India,240,India,Karnataka,HYDRO,Environmentally Responsible,14.25164,74.6749,"14.25164, 74.6749",Dam on river with reservoir,,"East of Honnavar, Karnataka, India",POWERPLANTS
Kalinadi Kadra Hydroelectric Power Plant India,150,India,Karnataka,HYDRO,Environmentally Responsible,14.89081152,74.39158885,"14.8908115159, 74.3915888499",,,,POWERPLANTS
Mahatma Gandhi Jog Falls Hydroelectric Power Plant India,139,India,Karnataka,HYDRO,Environmentally Responsible,14.2273,74.79937,"14.2273, 74.79937",Dam with run-of-river generation,Seasonal: Base,"Karnataka, India",POWERPLANTS
Badhra Hydroelectric Power Plant India,39.2,India,Karnataka,HYDRO,Environmentally Responsible,13.7013,75.6368,"13.7013, 75.6368",Dam on river with reservoir,Seasonal: Peaking,"Shankarghatta, Karnataka, India",POWERPLANTS
Sivasamudram Hydroelectric Power Project India,42,India,Karnataka,HYDRO,Environmentally Responsible,12.3082,77.165,"12.3082, 77.165",Barrage with run-of-river Generation,,"Sivasamudram, Karnataka, India",POWERPLANTS
Kuttiyadi Hydroelectric Power Plant India,225,India,Kerala,HYDRO,Environmentally Responsible,11.54835,75.8983,"11.54835, 75.8983",Dam on river with reservoir,Base Load,"29 km east of Vadakara, Kerala, India",POWERPLANTS
Lower Periyar Hydroelectric Power Plant India,180,India,Kerala,HYDRO,Environmentally Responsible,9.9624,76.957,"9.9624, 76.957",Dam with run-of-river generation,Base Load,"32 km from Kothamangalam in Idukki District, Kerala, India",POWERPLANTS
Rajghat Hydroelectric Power Plant India,45,India,Madhya Pradesh,HYDRO,Environmentally Responsible,24.7635,78.2322,"24.7635, 78.2322",Dam on river with reservoir,,"Near Chanderi, Madhya Pradesh, India",POWERPLANTS
Bhira Pumped Storage Hydro Power Plant India,132,India,Maharashtra,HYDRO,Environmentally Responsible,18.4546,73.3923,"18.4546, 73.3923",Pumped Storage Power Plant,,"Bhira, Maharashtra, India",POWERPLANTS
Loktak I Hydroelectric Power Plant India,105,India,Manipur,HYDRO,Environmentally Responsible,24.587,93.6696,"24.587, 93.6696",Dam on river with reservoir,,"39 Km South of Imphal, Manipur, India",POWERPLANTS
Umiam IV Hydroelectric Power Plant India,60,India,Meghalaya,HYDRO,Environmentally Responsible,25.8384,91.7441,"25.8384, 91.7441",Dam with run-of-river generation,Base/Intermediate Load,55 km from Shillong in District Ri Bhoi of Meghalaya,POWERPLANTS
Hirakud-I (Burla) Hydro Power Plant India,276,India,Orissa,HYDRO,Environmentally Responsible,21.5337,83.8754,"21.5337, 83.8754",Dam on river with reservoir,Intermediate/Peak Load,"15 km NW from Sambalpur, Orissa, India",POWERPLANTS
Hirakud-II (Chiplima) Hydroelectric Power Plant India,72,India,Orissa,HYDRO,Environmentally Responsible,21.3527,83.9168,"21.3527, 83.9168",Water discharged from another project,,"Chiplima, 30 km SW of Sambalpur, Orissa, India",POWERPLANTS
Ranjit Sagar Dam (Thein Dam) Hydroelectric Power Station India,600,India,Punjab,HYDRO,Environmentally Responsible,32.440394,75.73047638,"32.4403939971, 75.7304763794",,,,POWERPLANTS
Upper Bari Doab Canal (UBDC) Hydroelectric Power Station India,91,India,Punjab,HYDRO,Environmentally Responsible,32.3367,75.5819,"32.3367, 75.5819",Weir on a Canal,,"3 powerhouses along the UBDC at Ferozpur, Sujanpur, and Sarna, District Hoshiarpur, Punjab, India",POWERPLANTS
Jawahar Sagar Hydroelectric Power Station India,99,India,Rajasthan,HYDRO,Environmentally Responsible,25.0368884,75.67775488,"25.0368883964, 75.677754879",,,,POWERPLANTS
Chujachen Hydroelectric Power Plant India,110,India,Sikkim,HYDRO,Environmentally Responsible,27.2093,88.6659,"27.2093, 88.6659",Dam with run-of-river generation,Seasonal: Base,"Chuzachen Village, East District, Sikkim, India",POWERPLANTS
Kadamparai Hydroelectric Pumped Storage Power Plant India,400,India,Tamil Nadu,HYDRO,Environmentally Responsible,10.4104,77.0435,"10.4104, 77.0435",Pumped Storage Power Plant,,"Near Malaiyandipattanam, Coimbator, Tamil Nadu, India",POWERPLANTS
Sholayar I Hydroelectric Power House India,70,India,Tamil Nadu,HYDRO,Environmentally Responsible,10.3575,76.879,"10.3575, 76.879",Dam on river with reservoir,,,POWERPLANTS
Bhawani Kattalai Barrage II Hydroelectric Power Plant India,30,India,Tamil Nadu,HYDRO,Environmentally Responsible,11.331,77.758,"11.331, 77.758",Barrage with run-of-river Generation,,"Erode, Tamil Nadu, India",POWERPLANTS
Khara Hydroelectric Power Plant India,72,India,Uttar Pradesh,HYDRO,Environmentally Responsible,30.3508,77.6017,"30.3508, 77.6017",Water discharged from another project,Seasonal: Base,"Upstream of Tajewala Dam, Uttar Pradesh, India",POWERPLANTS
Chibro Hydroelectric Power Plant India,240,India,Uttarakhand,HYDRO,Environmentally Responsible,30.5559,77.7915,"30.5559, 77.7915",Dam on river with reservoir,Seasonal: Base,"Ichari, Uttaranchal, India",POWERPLANTS
Ramganga (Kalagarh) Hydro Power Plant India,198,India,Uttarakhand,HYDRO,Environmentally Responsible,29.5169,78.7574,"29.5169, 78.7574",Dam on river with reservoir,Seasonal: Base,"3.5 km North of  Kalagarh in Pauri Garhwal, Uttaranchal, India",POWERPLANTS
Tanakpur Hydro Power Plant India,94.2,India,Uttarakhand,HYDRO,Environmentally Responsible,29.0057,80.09456,"29.0057, 80.09456",Dam with run-of-river generation,,"Tanakpur near Banbassa, District Champawat, Uttaranchal, India",POWERPLANTS
Dhalipur Hydroelectric Power Plant India,51,India,Uttarakhand,HYDRO,Environmentally Responsible,30.4354,77.6821,"30.4354, 77.6821",Dam on a canal,,"Dhalipur, Uttarakhand, India",POWERPLANTS
Shrinagar Hydroelectric Power Plant India,330,India,Uttarakhand,HYDRO,Environmentally Responsible,30.2308,78.7912,"30.2308, 78.7912",Dam with run-of-river generation,Intermediate Load,"Shrinagar, Uttarakhand, India",POWERPLANTS
Maithon DVC Hydroelectric Power Project India,60,India,West Bengal,HYDRO,Environmentally Responsible,23.7872,86.8184,"23.7872, 86.8184",Dam on river with reservoir,,"25 km WNW of Asansol, District Burdaman, West Bengal, India",POWERPLANTS
Dez Dam Hydroelectric Power Plant Iran,520,Islamic Republic of Iran,Khuzestan,HYDRO,Environmentally Responsible,32.6053,48.464,"32.6053, 48.464",Dam on river with reservoir,,"20km NE of Andimeshk, Khuzestan, Iran",POWERPLANTS
Shahid Rajaee Hydroelectric Power Plant Iran,13.5,Islamic Republic of Iran,Mazandaran,HYDRO,Environmentally Responsible,36.249,53.228,"36.249, 53.228",Dam on river with reservoir,,"Tange Soleiman, Mazandaran Province, Iran",POWERPLANTS
Amir Kabir (Karaj) Hydroelectric Power Project Iran,90,Islamic Republic of Iran,Tehran,HYDRO,Environmentally Responsible,35.9564,51.089,"35.9564, 51.089",Dam on river with reservoir,,"23 km North of Karaj, Tehran, Iran",POWERPLANTS
Entracque Rovina-Piastra Pumped Storage Power Plant Italy,134,Italy,Cuneo,HYDRO,Environmentally Responsible,44.2256,7.3817,"44.2256, 7.3817",Pumped Storage Power Plant,Peaking Load,"Entracque, Cuneo, Italy",POWERPLANTS
Roncovalgrande Pumped Storage Power Plant Italy,1016,Italy,Varese,HYDRO,Environmentally Responsible,46.0702,8.7339,"46.0702, 8.7339",Pumped Storage Power Plant,Peaking Load,"Varese, Lombardy, Italy",POWERPLANTS
Shimogo Pumped Storage Power Plant Japan,1000,Japan,Fukushima,HYDRO,Environmentally Responsible,37.3448,139.90866,"37.3448, 139.90866",Pumped Storage Power Plant,Peaking Load and Backup,"Fukushima, Japan",POWERPLANTS
New Richmond Wind Farm Canada,67.8,Canada,Quebec,WIND,Environmentally Responsible,48.2265,-65.6652,"48.2265, -65.6652",,,,POWERPLANTS
Viger-Denonville Wind Farm Canada,24.6,Canada,Quebec,WIND,Environmentally Responsible,47.9063,-69.24013,"47.9063, -69.24013",,,,POWERPLANTS
Centennial Wind Farm Canada,150,Canada,Saskatchewan,WIND,Environmentally Responsible,50.1594,-107.4664,"50.1594, -107.4664",,,,POWERPLANTS
Canela I Wind Farm Chile,18.15,Chile,IV Region de Coquimbo,WIND,Environmentally Responsible,-31.3022,-71.6185,"-31.3022, -71.6185",,,,POWERPLANTS
Canela II Wind Farm Chile,60,Chile,IV Region de Coquimbo,WIND,Environmentally Responsible,-31.3022,-71.6185,"-31.3022, -71.6185",,,,POWERPLANTS
El Totoral Wind Farm Chile,46,Chile,IV Region de Coquimbo,WIND,Environmentally Responsible,-31.3379,-71.6011,"-31.3379, -71.6011",,,,POWERPLANTS
Talinay Wind Farm Chile,90,Chile,IV Region de Coquimbo,WIND,Environmentally Responsible,-30.5977,-71.1961,"-30.5977, -71.1961",,,,POWERPLANTS
Guanacaste Wind Farm Costa Rica,49.5,Costa Rica,Guanacaste,WIND,Environmentally Responsible,10.7227,-85.2644,"10.7227, -85.2644",,,,POWERPLANTS
Tilaran (PESA) Wind Farm Costa Rica,19.8,Costa Rica,Guanacaste,WIND,Environmentally Responsible,10.5193,-84.9846,"10.5193, -84.9846",,,,POWERPLANTS
Alexigros Wind Farm Cyprus,34.5,Cyprus,Larnaca,WIND,Environmentally Responsible,34.8716,33.5195,"34.8716, 33.5195",,,,POWERPLANTS
Orites Wind Farm Cyprus,82,Cyprus,Paphos,WIND,Environmentally Responsible,34.7359,32.6463,"34.7359, 32.6463",,,,POWERPLANTS
Horns Rev II Wind Farm Denmark,209.3,Denmark,Central Jutland,WIND,Environmentally Responsible,55.6,7.5825,"55.6, 7.5825",,,,POWERPLANTS
Pakri Wind Farm Estonia,18.4,Estonia,Harju,WIND,Environmentally Responsible,59.3806,24.0568,"59.3806, 24.0568",,,,POWERPLANTS
Virtsu II Wind Farm Estonia,6.9,Estonia,Lne,WIND,Environmentally Responsible,58.5896,23.5303,"58.5896, 23.5303",,,,POWERPLANTS
Esivere Wind Farm Estonia,8,Estonia,Lne,WIND,Environmentally Responsible,58.631,23.5277,"58.631, 23.5277",,,,POWERPLANTS
Vanakula Wind Farm Estonia,9,Estonia,Lne,WIND,Environmentally Responsible,59.14176,23.5795,"59.14176, 23.5795",,,,POWERPLANTS
Montcornet Wind Farm France,24,France,Aisne,WIND,Environmentally Responsible,49.6964,4.0181,"49.6964, 4.0181",,,,POWERPLANTS
Chapelle Vallon Wind Farm France,24,France,Aube,WIND,Environmentally Responsible,48.42,4.05,"48.42, 4.05",,,,POWERPLANTS
Nvian Wind Farm France,17.85,France,Aube,WIND,Environmentally Responsible,43.195,2.8775,"43.195, 2.8775",,,,POWERPLANTS
Ayssnes Le Truel Wind Farm France,12,France,Aveyron,WIND,Environmentally Responsible,44.09,2.73,"44.09, 2.73",,,,POWERPLANTS
Castelnau Pegayrols Wind Farm France,29.9,France,Aveyron,WIND,Environmentally Responsible,44.16,2.89,"44.16, 2.89",,,,POWERPLANTS
Fontanelles Wind Farm France,7.8,France,Aveyron,WIND,Environmentally Responsible,43.76,2.9,"43.76, 2.9",,,,POWERPLANTS
Sgur Wind Farm France,12,France,Aveyron,WIND,Environmentally Responsible,44.24,2.86,"44.24, 2.86",,,,POWERPLANTS
Saint Martin de Crau Wind Farm France,7.2,France,Bouches-du-Rhone,WIND,Environmentally Responsible,43.63,4.79,"43.63, 4.79",,,,POWERPLANTS
Sablons Wind Farm France,10,France,Calvados,WIND,Environmentally Responsible,48.9297,-0.1981,"48.9297, -0.1981",,,,POWERPLANTS
Coren Wind Farm France,15,France,Cantal,WIND,Environmentally Responsible,45.08,3.11,"45.08, 3.11",,,,POWERPLANTS
Xambes Wind Farm France,12.5,France,Charente,WIND,Environmentally Responsible,45.8197,0.0966,"45.8197, 0.0966",,,,POWERPLANTS
Guerldan Wind Farm France,4.25,France,Cotes-d'Armor,WIND,Environmentally Responsible,48.2268,-3.0408,"48.2268, -3.0408",,,,POWERPLANTS
Donzre Wind Farm France,3,France,Drame,WIND,Environmentally Responsible,44.45,4.75,"44.45, 4.75",,,,POWERPLANTS
Champ Besnard Wind Farm France,9.2,France,Eure-et-Loir,WIND,Environmentally Responsible,48.1341,1.8888,"48.1341, 1.8888",,,,POWERPLANTS
Janville Wind Farm France,34.5,France,Eure-et-Loir,WIND,Environmentally Responsible,48.1864,1.8906,"48.1864, 1.8906",,,,POWERPLANTS
Cast Wind Farm France,20,France,Finistere,WIND,Environmentally Responsible,48.16,-4.14,"48.16, -4.14",,,,POWERPLANTS
Plouguin II Wind Farm France,8,France,Finistere,WIND,Environmentally Responsible,48.5352,-4.6223,"48.5352, -4.6223",,,,POWERPLANTS
Plouvien Wind Farm France,10.4,France,Finistere,WIND,Environmentally Responsible,48.53,-4.45,"48.53, -4.45",,,,POWERPLANTS
Beaucaire Wind Farm France,11.5,France,Gard,WIND,Environmentally Responsible,43.81,4.64,"43.81, 4.64",,,,POWERPLANTS
Ersa Rogliano Wind Farm France,12,France,Haute-Corse,WIND,Environmentally Responsible,42.9678,9.3803,"42.9678, 9.3803",,,,POWERPLANTS
Is en Bassigny Wind Farm France,12,France,Haute-Marne,WIND,Environmentally Responsible,48.0195,5.4704,"48.0195, 5.4704",,,,POWERPLANTS
Les Eparmonts Wind Farm France,12,France,Haute-Marne,WIND,Environmentally Responsible,48.385,5.067,"48.385, 5.067",,,,POWERPLANTS
Aumelas WInd Farm France,22,France,Herault,WIND,Environmentally Responsible,43.53386493,3.624801636,"43.5338649287, 3.62480163574",,,,POWERPLANTS
Viertiville Wind Farm France,11.5,France,Loir-et-Cher,WIND,Environmentally Responsible,47.9,1.45,"47.9, 1.45",,,,POWERPLANTS
Beausjour Wind Farm France,10,France,Loire-Atlantique,WIND,Environmentally Responsible,47.48,-1.24,"47.48, -1.24",,,,POWERPLANTS
Le Crouzet Chaffol Wind Farm France,6.68,France,Lozare,WIND,Environmentally Responsible,44.69,3.62,"44.69, 3.62",,,,POWERPLANTS
Cotentin Wind Farm France,7.5,France,Manche,WIND,Environmentally Responsible,49.42,-1.71,"49.42, -1.71",,,,POWERPLANTS
Le Quarnon : Mont Faverget Wind Farm France,4,France,Marne,WIND,Environmentally Responsible,48.86,4.51,"48.86, 4.51",,,,POWERPLANTS
Quatre Communes Wind Farm France,12,France,Marne,WIND,Environmentally Responsible,48.83,4.39,"48.83, 4.39",,,,POWERPLANTS
Chantereine Mnaucourt Wind Farm France,16,France,Meuse,WIND,Environmentally Responsible,48.6511,5.3551,"48.6511, 5.3551",,,,POWERPLANTS
Mligny le Grand Wind Farm France,8,France,Meuse,WIND,Environmentally Responsible,48.6694,5.5036,"48.6694, 5.5036",,,,POWERPLANTS
"Mligny le Petit, Marson sur-Barboure et Reffroy Wind Farm France",12,France,Meuse,WIND,Environmentally Responsible,48.644,5.468,"48.644, 5.468",,,,POWERPLANTS
Mnil la Horgne Wind Farm France,10.5,France,Meuse,WIND,Environmentally Responsible,48.7006,5.5071,"48.7006, 5.5071",,,,POWERPLANTS
Reffroy Wind Farm France,12,France,Meuse,WIND,Environmentally Responsible,48.62,5.47,"48.62, 5.47",,,,POWERPLANTS
Saint Aubin sur Aire Wind Farm France,23,France,Meuse,WIND,Environmentally Responsible,48.7019,5.4236,"48.7019, 5.4236",,,,POWERPLANTS
Vouthon Haut Wind Farm France,12,France,Meuse,WIND,Environmentally Responsible,48.476,5.6188,"48.476, 5.6188",,,,POWERPLANTS
Guhenno Wind Farm France,3.6,France,Morbihan,WIND,Environmentally Responsible,47.8968,-2.6681,"47.8968, -2.6681",,,,POWERPLANTS
Langolan Wind Farm France,1.8,France,Morbihan,WIND,Environmentally Responsible,48.14,-3.22,"48.14, -3.22",,,,POWERPLANTS
Mauron Wind Farm France,10,France,Morbihan,WIND,Environmentally Responsible,48.0829,-2.2863,"48.0829, -2.2863",,,,POWERPLANTS
Villeselve Wind Farm France,6,France,Oise,WIND,Environmentally Responsible,49.6958,3.0868,"49.6958, 3.0868",,,,POWERPLANTS
La Haute Lys Wind Farm France,37.5,France,Pas-de-Calais,WIND,Environmentally Responsible,50.5558,2.1896,"50.5558, 2.1896",,,,POWERPLANTS
Saint Lger Wind Farm France,5.95,France,Pas-de-Calais,WIND,Environmentally Responsible,50.1856,2.8573,"50.1856, 2.8573",,,,POWERPLANTS
Fcamp Wind Farm France,4.5,France,Seine-Maritime,WIND,Environmentally Responsible,49.7689,0.3828,"49.7689, 0.3828",,,,POWERPLANTS
Hescamps Wind Farm France,6,France,Somme,WIND,Environmentally Responsible,49.73,1.87,"49.73, 1.87",,,,POWERPLANTS
Hombleux Wind Farm France,18,France,Somme,WIND,Environmentally Responsible,49.7346,3.0059,"49.7346, 3.0059",,,,POWERPLANTS
Maisnires Frettemeule Wind Farm France,24,France,Somme,WIND,Environmentally Responsible,50,1.62,"50.0, 1.62",,,,POWERPLANTS
Oresmaux Wind Farm France,12,France,Somme,WIND,Environmentally Responsible,49.7634,2.2464,"49.7634, 2.2464",,,,POWERPLANTS
Petit Terroir Wind Farm France,4.25,France,Somme,WIND,Environmentally Responsible,50.0653,1.4875,"50.0653, 1.4875",,,,POWERPLANTS
Sauveterre Wind Farm France,12,France,Tarn,WIND,Environmentally Responsible,43.475,2.55,"43.475, 2.55",,,,POWERPLANTS
Bel Air Wind Farm France,8,France,Vendee,WIND,Environmentally Responsible,46.7867,-1.6846,"46.7867, -1.6846",,,,POWERPLANTS
LEspinassire Wind Farm France,18,France,Vendee,WIND,Environmentally Responsible,46.8894,-1.7726,"46.8894, -1.7726",,,,POWERPLANTS
L'Ile de Olonne Wind Farm France,4.8,France,Vendee,WIND,Environmentally Responsible,46.56,-1.76,"46.56, -1.76",,,,POWERPLANTS
Nalliers Wind Farm France,4.8,France,Vendee,WIND,Environmentally Responsible,46.47,-1.03,"46.47, -1.03",,,,POWERPLANTS
Seraumount Wind Farm France,10,France,Vosges,WIND,Environmentally Responsible,48.44,5.61,"48.44, 5.61",,,,POWERPLANTS
Lamda Danida Wind Farm,15,India,Gujarat,WIND,Environmentally Responsible,21.90188931,69.28503762,"21.9018893076, 69.2850376187",,,,POWERPLANTS
Muppandal Madras  Wind Farm,10,India,Tamil Nadu,WIND,Environmentally Responsible,8.258516475,77.54290891,"8.25851647516, 77.5429089077",,,,POWERPLANTS
Sudenai Wind Farm Lithuania,15,Lithuania,Klaipeda,WIND,Environmentally Responsible,56.08445,21.21975,"56.08445, 21.21975",,,,POWERPLANTS
Cap Sim (Essaouira) Wind Farm Morocco,60.35,Morocco,Marrakech-Tensift-Al Haouz,WIND,Environmentally Responsible,31.3929,-9.7991,"31.3929, -9.7991",,,,POWERPLANTS
EPZ Wind Farm Netherlands,24.05,Netherlands,Zeeland,WIND,Environmentally Responsible,51.438785,3.703467497,"51.4387850046, 3.70346749725",,,,POWERPLANTS
Te Uku Wind Farm New Zealand,64.4,New Zealand,Waikato,WIND,Environmentally Responsible,-37.8847,174.9774,"-37.8847, 174.9774",,,,POWERPLANTS
Yeongyang (Yongyang) Wind Farm South Korea,61.5,Republic of Korea,Gyeongsangbuk-do,WIND,Environmentally Responsible,36.5692,129.2363,"36.5692, 129.2363",,,,POWERPLANTS
Hangyeong (Hankyung) Wind Farm South Korea,21,Republic of Korea,Jeju-do,WIND,Environmentally Responsible,33.3415,126.166,"33.3415, 126.166",,,,POWERPLANTS
Samdal Wind Farm South Korea,33,Republic of Korea,Jeju-do,WIND,Environmentally Responsible,33.3951,126.82118,"33.3951, 126.82118",,,,POWERPLANTS
Haengwon Wind Farm South Korea,9.8,Republic of Korea,Jeju-do,WIND,Environmentally Responsible,33.5589,126.8189,"33.5589, 126.8189",,,,POWERPLANTS
Sidi Daoud Wind Farm Tunisia,34.32,Tunisia,Nabeul,WIND,Environmentally Responsible,37.0419,10.9363,"37.0419, 10.9363",,,,POWERPLANTS
Whitelee Wind Farm UK,539,United Kingdom,East Renfrewshire,WIND,Environmentally Responsible,55.7,-4.304,"55.7, -4.304",,,,POWERPLANTS
Altamont Midway Ltd Wind Farm CA USA,10.9,United States of America,California,WIND,Environmentally Responsible,37.9336,-121.2604,"37.9336, -121.2604",,,,POWERPLANTS
Altamont Pass Windplant Wind Farm CA USA,332.5,United States of America,California,WIND,Environmentally Responsible,37.6427,-121.8743,"37.6427, -121.8743",,,,POWERPLANTS
Cabazon Wind Partners Wind Farm CA USA,41,United States of America,California,WIND,Environmentally Responsible,33.7437,-115.9925,"33.7437, -115.9925",,,,POWERPLANTS
CTV Power Purchase Contract Trust Wind Farm CA USA,4.6,United States of America,California,WIND,Environmentally Responsible,35.3444,-118.7289,"35.3444, -118.7289",,,,POWERPLANTS
ENXCO Wind Farm V Wind Farm CA USA,60,United States of America,California,WIND,Environmentally Responsible,38.2799,-121.9168,"38.2799, -121.9168",,,,POWERPLANTS
Mojave 3 Wind Farm CA USA,23.5,United States of America,California,WIND,Environmentally Responsible,35.3444,-118.7289,"35.3444, -118.7289",,,,POWERPLANTS
Mojave 4 Wind Farm CA USA,29,United States of America,California,WIND,Environmentally Responsible,35.3444,-118.7289,"35.3444, -118.7289",,,,POWERPLANTS
Oasis Wind Wind Farm California United States of America,60,United States of America,California,WIND,Environmentally Responsible,35.06119589,-118.2650757,"35.0611958859, -118.265075684",,,,POWERPLANTS
Pacific West I Wind Farm California United States of America,2.1,United States of America,California,WIND,Environmentally Responsible,35.05950973,-118.2640457,"35.0595097302, -118.264045715",,,,POWERPLANTS
Patterson Pass Wind Farm California United States of America,21.84,United States of America,California,WIND,Environmentally Responsible,37.6427,-121.8743,"37.6427, -121.8743",,,,POWERPLANTS
San Gorgonio Farms Wind Farm California United States of America,31.19,United States of America,California,WIND,Environmentally Responsible,33.92213843,-116.6199589,"33.9221384276, -116.619958878",,,,POWERPLANTS
San Gorgonio Westwinds II LLC Wind Farm CA USA,43.4,United States of America,California,WIND,Environmentally Responsible,33.7437,-115.9925,"33.7437, -115.9925",,,,POWERPLANTS
Tehachapi Wind Resource I Wind Farm CA USA,8.7,United States of America,California,WIND,Environmentally Responsible,35.3444,-118.7289,"35.3444, -118.7289",,,,POWERPLANTS
TPC Windfarms LLC Wind Farm CA USA,28.7,United States of America,California,WIND,Environmentally Responsible,35.3444,-118.7289,"35.3444, -118.7289",,,,POWERPLANTS
Ceder Creek Wind Farm CO USA,550,United States of America,Colorado,WIND,Environmentally Responsible,40.899,-104.013,"40.899, -104.013",,,,POWERPLANTS
"Mendota Hills, LLC Wind Farm IL USA",50.4,United States of America,Illinois,WIND,Environmentally Responsible,41.7481,-89.3045,"41.7481, -89.3045",,,,POWERPLANTS
Flying Cloud Wind Farm Iowa United States of America,43.5,United States of America,Iowa,WIND,Environmentally Responsible,43.4060452,-95.10864258,"43.406045195, -95.1086425781",,,,POWERPLANTS
Storm Lake I Wind Farm Iowa United States of America,108.75,United States of America,Iowa,WIND,Environmentally Responsible,43.40504749,-95.10932922,"43.4050474879, -95.1093292236",,,,POWERPLANTS
Westar Wind Wind Farm KS USA,1.4,United States of America,Kansas,WIND,Environmentally Responsible,39.3737,-96.3361,"39.3737, -96.3361",,,,POWERPLANTS
Adams Wind Farm Wind Farm MN USA,24,United States of America,Minnesota,WIND,Environmentally Responsible,43.6709,-92.7561,"43.6709, -92.7561",,,,POWERPLANTS
Autumn Hills LLC Wind Farm MN USA,1.9,United States of America,Minnesota,WIND,Environmentally Responsible,44.4124,-96.2698,"44.4124, -96.2698",,,,POWERPLANTS
Blue Earth Oil Plant MN USA,8.1,United States of America,Minnesota,OIL,Environmentally Responsible,43.6739,-93.948,"43.6739, -93.948",,,,POWERPLANTS
Kenyon Municipal Oil Plant MN USA,5.4,United States of America,Minnesota,OIL,Environmentally Responsible,44.4545,-92.642,"44.4545, -92.642",,,,POWERPLANTS
Marshall Oil Plant MN USA,18,United States of America,Minnesota,OIL,Environmentally Responsible,44.4139,-95.8391,"44.4139, -95.8391",,,,POWERPLANTS
Moorhead Oil Plant MN USA,10,United States of America,Minnesota,OIL,Environmentally Responsible,46.8692,-96.7786,"46.8692, -96.7786",,,,POWERPLANTS
Truman Oil Plant MN USA,5.9,United States of America,Minnesota,OIL,Environmentally Responsible,43.6743,-94.551,"43.6743, -94.551",,,,POWERPLANTS
Bethany II Oil Plant MO USA,1.6,United States of America,Missouri,OIL,Environmentally Responsible,40.3545,-93.9995,"40.3545, -93.9995",,,,POWERPLANTS
Bethany Oil Plant MO USA,8,United States of America,Missouri,OIL,Environmentally Responsible,40.3545,-93.9995,"40.3545, -93.9995",,,,POWERPLANTS
Campbell City Oil Plant MO USA,6.5,United States of America,Missouri,OIL,Environmentally Responsible,36.3135,-90.025,"36.3135, -90.025",,,,POWERPLANTS
Fairgrounds Oil Plant MO USA,68.3,United States of America,Missouri,OIL,Environmentally Responsible,38.5043,-92.2804,"38.5043, -92.2804",,,,POWERPLANTS
Fayette Oil Plant MO USA,10.9,United States of America,Missouri,OIL,Environmentally Responsible,39.1434,-92.7017,"39.1434, -92.7017",,,,POWERPLANTS
Jackson Square Oil Plant MO USA,36,United States of America,Missouri,OIL,Environmentally Responsible,39.007,-94.3507,"39.007, -94.3507",,,,POWERPLANTS
Marceline Oil Plant MO USA,9.6,United States of America,Missouri,OIL,Environmentally Responsible,39.8679,-93.112,"39.8679, -93.112",,,,POWERPLANTS
Moberly Oil Plant MO USA,60.6,United States of America,Missouri,OIL,Environmentally Responsible,39.4421,-92.5009,"39.4421, -92.5009",,,,POWERPLANTS
Nevada Oil Plant MO USA,22,United States of America,Missouri,OIL,Environmentally Responsible,37.8494,-94.3465,"37.8494, -94.3465",,,,POWERPLANTS
Odessa Oil Plant MO USA,7.3,United States of America,Missouri,OIL,Environmentally Responsible,39.0639,-93.7931,"39.0639, -93.7931",,,,POWERPLANTS
Shelbina Power #1 Oil Plant MO USA,4.6,United States of America,Missouri,OIL,Environmentally Responsible,39.7989,-92.0793,"39.7989, -92.0793",,,,POWERPLANTS
Trenton Peaking Oil Plant MO USA,13.5,United States of America,Missouri,OIL,Environmentally Responsible,40.1112,-93.5725,"40.1112, -93.5725",,,,POWERPLANTS
Trenton South Oil Plant MO USA,14,United States of America,Missouri,OIL,Environmentally Responsible,40.1112,-93.5725,"40.1112, -93.5725",,,,POWERPLANTS
Chappell Oil Plant NE USA,1.3,United States of America,Nebraska,OIL,Environmentally Responsible,41.1081,-102.3287,"41.1081, -102.3287",,,,POWERPLANTS
J Street Oil Plant NE USA,27,United States of America,Nebraska,OIL,Environmentally Responsible,40.7847,-96.6803,"40.7847, -96.6803",,,,POWERPLANTS
Mobile Oil Plant NE USA,4.1,United States of America,Nebraska,OIL,Environmentally Responsible,40.8709,-97.5906,"40.8709, -97.5906",,,,POWERPLANTS
Sutherland Oil Plant NE USA,3,United States of America,Nebraska,OIL,Environmentally Responsible,41.045,-100.7378,"41.045, -100.7378",,,,POWERPLANTS
Wilber Oil Plant NE USA,3.6,United States of America,Nebraska,OIL,Environmentally Responsible,40.5241,-97.14,"40.5241, -97.14",,,,POWERPLANTS
Brunswick Oil Plant NV USA,6,United States of America,Nevada,OIL,Environmentally Responsible,39.149,-119.7391,"39.149, -119.7391",,,,POWERPLANTS
Durgin  and  Crowell Lumber Oil Plant NH USA,6.1,United States of America,New Hampshire,OIL,Environmentally Responsible,43.3593,-72.224,"43.3593, -72.224",,,,POWERPLANTS
White Lake Oil Plant NH USA,18.6,United States of America,New Hampshire,OIL,Environmentally Responsible,43.8478,-71.2069,"43.8478, -71.2069",,,,POWERPLANTS
PSEG Bayonne Generating Station Oil Plant NJ USA,42.2,United States of America,New Jersey,OIL,Environmentally Responsible,40.6589,-74.0967,"40.6589, -74.0967",,,,POWERPLANTS
Phelps Dodge Cobre Mining Oil Plant NM USA,2.4,United States of America,New Mexico,OIL,Environmentally Responsible,32.7435,-108.375,"32.7435, -108.375",,,,POWERPLANTS
Bronx Zoo Oil Plant NY USA,3.6,United States of America,New York,OIL,Environmentally Responsible,40.8617,-73.8591,"40.8617, -73.8591",,,,POWERPLANTS
East River Oil Plant NY USA,356.2,United States of America,New York,OIL,Environmentally Responsible,40.7281,-73.9742,"40.7281, -73.9742",,,,POWERPLANTS
Greenport Oil Plant NY USA,6.8,United States of America,New York,OIL,Environmentally Responsible,40.8803,-72.8434,"40.8803, -72.8434",,,,POWERPLANTS
Holtsville Oil Plant NY USA,567,United States of America,New York,OIL,Environmentally Responsible,40.8153,-73.0664,"40.8153, -73.0664",,,,POWERPLANTS
Plant No 1 Oil Plant NY USA,13.2,United States of America,New York,OIL,Environmentally Responsible,40.749,-73.589,"40.749, -73.589",,,,POWERPLANTS
PPL Shoreham Energy LLC Oil Plant NY USA,100,United States of America,New York,OIL,Environmentally Responsible,40.8784,-72.8554,"40.8784, -72.8554",,,,POWERPLANTS
West Babylon Oil Plant NY USA,52.4,United States of America,New York,OIL,Environmentally Responsible,40.6953,-73.3497,"40.6953, -73.3497",,,,POWERPLANTS
DSM Pharmaceuticals Oil Plant NC USA,8.8,United States of America,North Carolina,OIL,Environmentally Responsible,35.5893,-77.3777,"35.5893, -77.3777",,,,POWERPLANTS
Lincoln Combustion Oil Plant NC USA,1753.6,United States of America,North Carolina,OIL,Environmentally Responsible,35.4317,-81.0347,"35.4317, -81.0347",,,,POWERPLANTS
Morehead Oil Plant NC USA,16.3,United States of America,North Carolina,OIL,Environmentally Responsible,34.829,-76.6734,"34.829, -76.6734",,,,POWERPLANTS
Arcanum Oil Plant OH USA,1.2,United States of America,Ohio,OIL,Environmentally Responsible,40.1337,-84.6187,"40.1337, -84.6187",,,,POWERPLANTS
Arcanum Peaking Oil Plant OH USA,1.8,United States of America,Ohio,OIL,Environmentally Responsible,40.1333,-84.6193,"40.1333, -84.6193",,,,POWERPLANTS
Cleveland Peaking Oil Plant OH USA,10.8,United States of America,Ohio,OIL,Environmentally Responsible,41.423,-81.6497,"41.423, -81.6497",,,,POWERPLANTS
Edgerton Oil Plant OH USA,3.6,United States of America,Ohio,OIL,Environmentally Responsible,39.437,-84.5767,"39.437, -84.5767",,,,POWERPLANTS
Montpelier Oil Plant OH USA,10.8,United States of America,Ohio,OIL,Environmentally Responsible,41.5616,-84.5761,"41.5616, -84.5761",,,,POWERPLANTS
Wellington Oil Plant OH USA,1,United States of America,Ohio,OIL,Environmentally Responsible,41.2953,-82.1459,"41.2953, -82.1459",,,,POWERPLANTS
Fairview Oil Plant OK USA,1.8,United States of America,Oklahoma,OIL,Environmentally Responsible,36.3139,-98.5328,"36.3139, -98.5328",,,,POWERPLANTS
Ponca City Refinery Oil Plant OK USA,18,United States of America,Oklahoma,OIL,Environmentally Responsible,36.6931,-97.0869,"36.6931, -97.0869",,,,POWERPLANTS
Falls Oil Plant PA USA,63.6,United States of America,Pennsylvania,OIL,Environmentally Responsible,40.1778,-74.7894,"40.1778, -74.7894",,,,POWERPLANTS
Hamilton Oil Plant PA USA,19.6,United States of America,Pennsylvania,OIL,Environmentally Responsible,39.8716,-77.218,"39.8716, -77.218",,,,POWERPLANTS
Mountain Oil Plant PA USA,54,United States of America,Pennsylvania,OIL,Environmentally Responsible,40.1219,-77.1761,"40.1219, -77.1761",,,,POWERPLANTS
Newman Oil Plant PA USA,1.8,United States of America,Pennsylvania,OIL,Environmentally Responsible,40.0042,-75.1414,"40.0042, -75.1414",,,,POWERPLANTS
Ortanna Oil Plant PA USA,27,United States of America,Pennsylvania,OIL,Environmentally Responsible,39.8442,-77.3511,"39.8442, -77.3511",,,,POWERPLANTS
Paxton Creek Cogeneration Oil Plant PA USA,12.6,United States of America,Pennsylvania,OIL,Environmentally Responsible,40.4191,-76.7803,"40.4191, -76.7803",,,,POWERPLANTS
PPL Martins Creek LLC Jenkins Oil Plant PA USA,32,United States of America,Pennsylvania,OIL,Environmentally Responsible,41.2814,-75.8178,"41.2814, -75.8178",,,,POWERPLANTS
Schuylkill Generating Station Oil Plant PA USA,232.9,United States of America,Pennsylvania,OIL,Environmentally Responsible,39.9425,-75.1883,"39.9425, -75.1883",,,,POWERPLANTS
Warren Oil Plant PA USA,137.1,United States of America,Pennsylvania,OIL,Environmentally Responsible,41.8358,-79.19,"41.8358, -79.19",,,,POWERPLANTS
Cornell Dubilier Oil Plant SC USA,2.9,United States of America,South Carolina,OIL,Environmentally Responsible,34.8831,-82.7233,"34.8831, -82.7233",,,,POWERPLANTS
Lake Preston Oil Plant SD USA,24.1,United States of America,South Dakota,OIL,Environmentally Responsible,44.3683,-97.494,"44.3683, -97.494",,,,POWERPLANTS
Spirit Mound Oil Plant SD USA,135,United States of America,South Dakota,OIL,Environmentally Responsible,42.917,-96.9823,"42.917, -96.9823",,,,POWERPLANTS
Yankton Oil Plant SD USA,13.4,United States of America,South Dakota,OIL,Environmentally Responsible,43.0116,-97.3972,"43.0116, -97.3972",,,,POWERPLANTS
Bolivar Oil Plant TN USA,20,United States of America,Tennessee,OIL,Environmentally Responsible,35.2114,-88.9944,"35.2114, -88.9944",,,,POWERPLANTS
AES Deepwater Oil Plant TX USA,184,United States of America,Texas,OIL,Environmentally Responsible,29.7192,-95.2278,"29.7192, -95.2278",,,,POWERPLANTS
Brownfield Oil Plant TX USA,17.9,United States of America,Texas,OIL,Environmentally Responsible,33.17,-102.3308,"33.17, -102.3308",,,,POWERPLANTS
Hoover Company Oil Plant TX USA,7.2,United States of America,Texas,OIL,Environmentally Responsible,31.7723,-106.2404,"31.7723, -106.2404",,,,POWERPLANTS
Ascutney Oil Plant VT USA,13.2,United States of America,Vermont,OIL,Environmentally Responsible,43.5769,-72.5875,"43.5769, -72.5875",,,,POWERPLANTS
Berlin 5 Oil Plant VT USA,41.8,United States of America,Vermont,OIL,Environmentally Responsible,44.2701,-72.6163,"44.2701, -72.6163",,,,POWERPLANTS
Florence Oil Plant VT USA,9.2,United States of America,Vermont,OIL,Environmentally Responsible,43.5786,-73.0366,"43.5786, -73.0366",,,,POWERPLANTS
Rutland Oil Plant VT USA,13.2,United States of America,Vermont,OIL,Environmentally Responsible,43.5786,-73.0366,"43.5786, -73.0366",,,,POWERPLANTS
Bayview Oil Plant VA USA,12,United States of America,Virginia,OIL,Environmentally Responsible,37.3486,-75.9029,"37.3486, -75.9029",,,,POWERPLANTS
Boydton Plank Road Cogen Plant Oil Plant VA USA,3,United States of America,Virginia,OIL,Environmentally Responsible,37.0763,-77.638,"37.0763, -77.638",,,,POWERPLANTS
Dominion/Lo Mar Oil Plant VA USA,19.2,United States of America,Virginia,OIL,Environmentally Responsible,38.7052,-77.4828,"38.7052, -77.4828",,,,POWERPLANTS
Gateway Gen Oil Plant VA USA,1.8,United States of America,Virginia,OIL,Environmentally Responsible,38.7052,-77.4828,"38.7052, -77.4828",,,,POWERPLANTS
Gravel Neck Oil Plant VA USA,407.7,United States of America,Virginia,OIL,Environmentally Responsible,37.1575,-76.6911,"37.1575, -76.6911",,,,POWERPLANTS
Northern Neck Oil Plant VA USA,82.8,United States of America,Virginia,OIL,Environmentally Responsible,37.9458,-76.7332,"37.9458, -76.7332",,,,POWERPLANTS
West Spring Street Oil Plant VA USA,7.8,United States of America,Virginia,OIL,Environmentally Responsible,38.4886,-77.9574,"38.4886, -77.9574",,,,POWERPLANTS
Wythe Park Power Petersburg Plant Oil Plant VA USA,3,United States of America,Virginia,OIL,Environmentally Responsible,37.2048,-77.3979,"37.2048, -77.3979",,,,POWERPLANTS
Fennimore Oil Plant WI USA,7.4,United States of America,Wisconsin,OIL,Environmentally Responsible,42.858,-90.792,"42.858, -90.792",,,,POWERPLANTS
Frederic Diesel Oil Plant WI USA,13.7,United States of America,Wisconsin,OIL,Environmentally Responsible,45.4644,-92.4413,"45.4644, -92.4413",,,,POWERPLANTS
Point Beach Oil Plant WI USA,1072.6,United States of America,Wisconsin,OIL,Environmentally Responsible,44.1203,-87.8043,"44.1203, -87.8043",,,,POWERPLANTS
Washington Island Oil Plant WI USA,5,United States of America,Wisconsin,OIL,Environmentally Responsible,44.9495,-87.3102,"44.9495, -87.3102",,,,POWERPLANTS
CT Maldonado Power Plant Uruguay,20,Uruguay,Maldonado,OIL,Environmentally Responsible,-34.9513,-54.9368,"-34.9513, -54.9368",Combustion Turbine,Peaking Load and Backup,"Maldonado, Uruguay",POWERPLANTS
Jose Batlle y Ordonez Thermal Power Plant Argentina,343,Uruguay,Montevideo,OIL,Environmentally Responsible,-34.8859,-56.1967,"-34.8859, -56.1967",Sub-critical Steam Turbine,Base Load,"Montevideo, Uruguay",POWERPLANTS
Thu Duc Thermal Power Plant Vietnam,257,Viet Nam,Ho Chi Minh,OIL,Environmentally Responsible,10.8284,106.7577,"10.8284, 106.7577",Mix of Steam and Combustion Turbines,,"Truong Tho, Ho Chi Minh City, Vietnam",POWERPLANTS
Dakhla IC Power Plant Western Sahara,23.4,Western Sahara,Oued el Dahab,OIL,Environmentally Responsible,23.6816,-15.9594,"23.6816, -15.9594",Oil Engine,Base Load,"Dakhia, Oued el Dahab, Western Sahara",POWERPLANTS
Dubbo Solar PV Farm Australia,0.05,Australia,New South Wales,SOLAR_PV,Environmentally Responsible,-32.24973608,148.6008563,"-32.2497360821, 148.600856332",,,"New South Wales, Australia",POWERPLANTS
Kings Canyon Solar PV Farm Australia,0.225,Australia,Northern Territory,SOLAR_PV,Environmentally Responsible,-24.25105352,131.5006185,"-24.251053523, 131.500618458",,,Watarrka National Park in the arid zone. Northern Territory,POWERPLANTS
Wilpena Pound Solar PV Farm Australia,0.1,Australia,South Australia,SOLAR_PV,Environmentally Responsible,-31.52938506,138.6043739,"-31.529385064, 138.604373932",,,Eastern Australia,POWERPLANTS
Kalkbult Solar Power Plant South Africa,75,South Africa,Northern Cape,SOLAR_PV,Environmentally Responsible,-30.1303,24.1294,"-30.1303, 24.1294",,,"Kalkbult near DeAar, Northern Cape, South Africa",POWERPLANTS
Agua Caliente Solar Farm Arizona USA,290,United States of America,Arizona,SOLAR_PV,Environmentally Responsible,32.966667,-113.5,"32.966667, -113.5",,,"Yuma County, 190miles W of Pheonix, Arizona, USA",POWERPLANTS
Mesquite Solar 1 PV Power Plant Arizona USA,150,United States of America,Arizona,SOLAR_PV,Environmentally Responsible,33.3427,-112.919,"33.3427, -112.919",,,"60km West of Pheonix, Arizona, USA",POWERPLANTS
Topaz Solar PV Farm California USA,550,United States of America,California,SOLAR_PV,Environmentally Responsible,35.3833,-120.0599,"35.3833, -120.0599",,,"Carrisa Plains, California, USA",POWERPLANTS
Corcoran I Solar PV Power Plant CA USA,20,United States of America,California,SOLAR_PV,Environmentally Responsible,36.1417,-119.5724,"36.1417, -119.5724",,,"Corcoran, Kings County, California, USA",POWERPLANTS
Hassi R'mel integrated solar CC Power Plant Algeria,25,Algeria,Laghouat,SOLAR_THERMAL,Environmentally Responsible,32.94748,3.237981,"32.94748, 3.237981",Integrated Solar Combined Cycle System (ISCCS),,"Near Hassi R'mel, Algeria",POWERPLANTS
Palma del Rio CSP Power Plant Spain,100,Spain,Andalusia,SOLAR_THERMAL,Environmentally Responsible,37.6485,-5.26,"37.6485, -5.26",Sub-critical Steam Turbine (ST),,"Palma del Ro, Cordoba, Andalusia, Spain",POWERPLANTS
La Africana CSP Power Plant Spain,50,Spain,Andalusia,SOLAR_THERMAL,Environmentally Responsible,37.75735,-5.062,"37.75735, -5.062",Sub-critical Steam Turbine (ST),,"Penalosa, Andalusia, Spain",POWERPLANTS
Helios I and II CSP Power Plant Spain,100,Spain,Castile-La Mancha,SOLAR_THERMAL,Environmentally Responsible,39.2385,-3.4749,"39.2385, -3.4749",Sub-critical Steam Turbine (ST),,"Puerto Lapice, Ciudad Real, Castile-La Mancha, Spain",POWERPLANTS
Borges Termosolar Power Plant Spain,25,Spain,Catalonia,SOLAR_THERMAL,Environmentally Responsible,41.52926,0.80463,"41.52926, 0.80463",,,"Les Borges Blanques, Catalonia, Spain",POWERPLANTS
Orellana CSP Power Plant Spain,50,Spain,Extremadura,SOLAR_THERMAL,Environmentally Responsible,39.0212,-5.5333,"39.0212, -5.5333",Sub-critical Steam Turbine (ST),,"Orellana la Vieja, Badajoz, Exremadura, Spain",POWERPLANTS
La Dehesa CSP Power Plant Spain,50,Spain,Extremadura,SOLAR_THERMAL,Environmentally Responsible,38.9594,-6.464,"38.9594, -6.464",Sub-critical Steam Turbine (ST),,"Badajoz, Extremadura, Spain",POWERPLANTS
SEGS I (Daggett) Solar Power Station USA,13.8,United States of America,California,SOLAR_THERMAL,Environmentally Responsible,34.86730638,-116.8255663,"34.867306376, -116.825566292",Sub-critical Steam Turbine (ST),,"Daggett, California, USA",POWERPLANTS
SEGS IX (Harper Lake) Solar Power Plant USA,80,United States of America,California,SOLAR_THERMAL,Environmentally Responsible,35.02957467,-117.3382759,"35.0295746723, -117.338275909",Sub-critical Steam Turbine (ST),,"Harper Lake, San Bernadino County, Southern California",POWERPLANTS
SEGS V (Kramer Junction) Solar Power Plant USA,33,United States of America,California,SOLAR_THERMAL,Environmentally Responsible,35.01903155,-117.5562859,"35.019031548, -117.556285858",Sub-critical Steam Turbine (ST),,"Kramer Junction, California",POWERPLANTS
SEGS VI (Kramer Junction) Solar Power Plant USA,33,United States of America,California,SOLAR_THERMAL,Environmentally Responsible,35.01256443,-117.5561142,"35.0125644258, -117.556114197",Sub-critical Steam Turbine (ST),,"Kramer Junction, Mojave Desert, California",POWERPLANTS
Weipa Waste PP,21,Australia,Queensland,WASTE,Environmentally Responsible,-12.66852091,141.8720403,"-12.6685209083, 141.872040304",,,,POWERPLANTS
Whitecourt Electric Power Generating Facility Canada,25,Canada,Alberta,WASTE,Environmentally Responsible,54.1624,-115.7338,"54.1624, -115.7338",Sub-critical Steam Turbine,,"2 km North of Whitecourt on Hwy 43, Whitecourt, Alberta T7S1P6 Canada",POWERPLANTS
Fort Francis Mill Biomass Power Plant Canada,50,Canada,Ontario,WASTE,Environmentally Responsible,48.61,-93.401,"48.61, -93.401",Sub-critical Steam Turbine,,"145 Third Street West, Fort Frances, Ontario, Canada",POWERPLANTS
Centrale de Congeneration de Saint Felicien Power Plant Canada,23,Canada,Quebec,WASTE,Environmentally Responsible,48.6378,-72.4338,"48.6378, -72.4338",Cogeneration Power and Heat Steam Turbine,,"Saint Felicie, Quebec, Canada",POWERPLANTS
Golfo/Penoles Thermal Power Plant Mexico,520,Mexico,San Luis Potosi,WASTE,Environmentally Responsible,22.06909614,-98.84665489,"22.0690961351, -98.846654892",,,,POWERPLANTS
Vartan CHP8 Power Plant Sweden,130,Sweden,Stockholm,WASTE,Environmentally Responsible,59.352,18.10102,"59.352, 18.10102",Cogeneration Power and Heat Steam Turbine,Cogeneration,"Vartan, Lidingovagen 115, Stockholm, Sweden",POWERPLANTS
Alabama Pine Pulp Waste Plant AL USA,69,United States of America,Alabama,WASTE,Environmentally Responsible,31.5117,-87.4075,"31.5117, -87.4075",,,,POWERPLANTS
Fairfield Works Waste Plant AL USA,82,United States of America,Alabama,WASTE,Environmentally Responsible,33.4833,-86.9261,"33.4833, -86.9261",,,,POWERPLANTS
Fourche Creek Wastewater Waste Plant AR USA,1.5,United States of America,Arkansas,WASTE,Environmentally Responsible,34.7748,-92.3081,"34.7748, -92.3081",,,,POWERPLANTS
International Paper Pine Bluff Mill Waste Plant AR USA,85,United States of America,Arkansas,WASTE,Environmentally Responsible,34.2194,-91.9031,"34.2194, -91.9031",,,,POWERPLANTS
Collins Pine Project Waste Plant CA USA,12,United States of America,California,WASTE,Environmentally Responsible,40.3118,-121.2346,"40.3118, -121.2346",,,,POWERPLANTS
Colton Landfill Waste Plant CA USA,1.3,United States of America,California,WASTE,Environmentally Responsible,34.8428,-116.1729,"34.8428, -116.1729",,,,POWERPLANTS
Tipitapa IC Power Plant Nicaragua,51,Nicaragua,Managua,OIL,Environmentally Responsible,12.1698,-86.1052,"12.1698, -86.1052",Oil Engine,Base Load,"20km east of Managua, Managua, Nicaragua",POWERPLANTS
Sapele Thermal Power Plant Nigeria,1020,Nigeria,Delta,OIL,Environmentally Responsible,5.9254,5.645,"5.9254, 5.645",Sub-critical Steam Turbine,Base Load,"Sapele, Delta, Nigeria",POWERPLANTS
Hub River Power Project Oil Plant Pakistan,1292,Pakistan,Balochistan,OIL,Environmentally Responsible,24.9057,66.6946,"24.9057, 66.6946",Sub-critical Steam Turbine,,"Tehsil Hub, District Lasbela, Balochistan, Pakistan",POWERPLANTS
Kohinoor Energy Oil Power Plant Pakistan,131.4,Pakistan,Punjab,OIL,Environmentally Responsible,31.26288816,74.18713331,"31.2628881643, 74.1871333122",,,,POWERPLANTS
Saba Power Oil Power Plant Pakistan,136,Pakistan,Punjab,OIL,Environmentally Responsible,31.7322,73.8752,"31.7322, 73.8752",Sub-critical Steam Turbine,,"Farouqabad, Shiekhupura, Punjab",POWERPLANTS
Barreiro Cogen Thermal Power Plant Brazil,64,Portugal,Lisboa,OIL,Environmentally Responsible,38.675,-9.0545,"38.675, -9.0545",Sub-critical Steam Turbine,Peaking Load,"Lisboa, Portugal",POWERPLANTS
Hsieh-Ho Oil Power Station Taiwan,2000,Republic of China Taiwan,Taiwan,OIL,Environmentally Responsible,25.1572,121.7398,"25.1572, 121.7398",,,,POWERPLANTS
Jeju Oil Thermal Power Plant South Korea,285,Republic of Korea,Jeju-do,OIL,Environmentally Responsible,33.53517057,126.5961456,"33.5351705737, 126.59614563",Mix of Steam and Combustion Turbines,Base Load,"Jeju, South Korea",POWERPLANTS
CET-1 CHP Power Plant Moldova,66,Republic of Moldova,Chisinau,OIL,Environmentally Responsible,47.0261,28.8672,"47.0261, 28.8672",Sub-critical Steam Turbine,,"Chisinau, Republic of Moldova",POWERPLANTS
Zrenjanin CHP Power Plant Serbia,120,Serbia,Central Banat,OIL,Environmentally Responsible,45.3572,20.4158,"45.3572, 20.4158",Cogeneration Power and Heat Steam Turbine,Base Load,"Zrenjanin, Central Banat, Vojvodina, Serbia",POWERPLANTS
Kingtom Generating Station Sierra Leone,,Sierra Leone,Western,OIL,Environmentally Responsible,8.4929,-13.2474,"8.4929, -13.2474",Oil Engine,Base Load,"Kingtom, Greetown, Sierra Leone",POWERPLANTS
Senoko Thermal Power Station Singapore,500,Singapore,South West,OIL,Environmentally Responsible,1.464,103.7976,"1.464, 103.7976",Sub-critical Steam Turbine,Intermediate/Peak Load,"Senoko, Singapore",POWERPLANTS
Tuas Oil Power Station Singapore,1200,Singapore,South West,OIL,Environmentally Responsible,1.289647387,103.6396551,"1.28964738714, 103.639655113",Sub-critical Steam Turbine,Base Load,"Tuas, Singapore",POWERPLANTS
Colombo Port Oil Power Station Sri Lanka,60,Sri Lanka,Colombo,OIL,Environmentally Responsible,6.9534,79.8558,"6.9534, 79.8558",Oil Engine,,"Colombo Harbor, Sri Lanka",POWERPLANTS
Sapugaskanda Oil Power Plant Sri Lanka,160,Sri Lanka,Colombo,OIL,Environmentally Responsible,6.961,79.961,"6.961, 79.961",Oil Engine,,"Sapugaskanda, Colombo, Sri Lanka",POWERPLANTS
Karlshamn (Starno) Thermal Power Station Sweden,1020,Sweden,Blekinge,OIL,Environmentally Responsible,56.1522,14.8325,"56.1522, 14.8325",Sub-critical Steam Turbine,Peaking Load and Backup,"Starno Peninsula, Karlshamn, Blekinge, Sweden",POWERPLANTS
Aleppo Thermal Power Plant Syria,1065,Syrian Arab Republic,Aleppo,OIL,Environmentally Responsible,36.1763,37.437,"36.1763, 37.437",Sub-critical Steam Turbine,,"Jibrin, 25 km East of Aleppo, Aleppo, Syria",POWERPLANTS
Littlebrook D Oil Power Station,1475,United Kingdom,Kent,OIL,Environmentally Responsible,51.465278,0.241667,"51.465278, 0.241667",,,,POWERPLANTS
Bethel Oil Plant AK USA,12.6,United States of America,Alaska,OIL,Environmentally Responsible,60.9214,-159.7663,"60.9214, -159.7663",,,,POWERPLANTS
Centennial Oil Plant AK USA,3.3,United States of America,Alaska,OIL,Environmentally Responsible,55.5641,-131.3782,"55.5641, -131.3782",,,,POWERPLANTS
Craig Oil Plant AK USA,4.4,United States of America,Alaska,OIL,Environmentally Responsible,55.9248,-131.1379,"55.9248, -131.1379",,,,POWERPLANTS
Fairbanks Oil Plant AK USA,42.2,United States of America,Alaska,OIL,Environmentally Responsible,64.8082,-146.5635,"64.8082, -146.5635",,,,POWERPLANTS
False Island Oil Plant AK USA,1.3,United States of America,Alaska,OIL,Environmentally Responsible,55.9248,-131.1379,"55.9248, -131.1379",,,,POWERPLANTS
Hoonah Oil Plant AK USA,2.4,United States of America,Alaska,OIL,Environmentally Responsible,57.2398,-135.307,"57.2398, -135.307",,,,POWERPLANTS
Lemon Creek Oil Plant AK USA,57.5,United States of America,Alaska,OIL,Environmentally Responsible,58.4609,-134.1781,"58.4609, -134.1781",,,,POWERPLANTS
Noorvik Oil Plant AK USA,1,United States of America,Alaska,OIL,Environmentally Responsible,67.0586,-159.7075,"67.0586, -159.7075",,,,POWERPLANTS
North Pole Oil Plant AK USA,121,United States of America,Alaska,OIL,Environmentally Responsible,64.8082,-146.5635,"64.8082, -146.5635",,,,POWERPLANTS
Northway Oil Plant AK USA,1,United States of America,Alaska,OIL,Environmentally Responsible,63.8718,-143.3641,"63.8718, -143.3641",,,,POWERPLANTS
NSB Kaktovik Utility Oil Plant AK USA,2.6,United States of America,Alaska,OIL,Environmentally Responsible,69.303,-153.3903,"69.303, -153.3903",,,,POWERPLANTS
NSB Nuiqsut Utility Oil Plant AK USA,2.6,United States of America,Alaska,OIL,Environmentally Responsible,69.303,-153.3903,"69.303, -153.3903",,,,POWERPLANTS
Port Lions Oil Plant AK USA,1,United States of America,Alaska,OIL,Environmentally Responsible,57.1451,-153.4767,"57.1451, -153.4767",,,,POWERPLANTS
S W Bailey Oil Plant AK USA,25.9,United States of America,Alaska,OIL,Environmentally Responsible,55.5641,-131.3782,"55.5641, -131.3782",,,,POWERPLANTS
Selawik Oil Plant AK USA,2.4,United States of America,Alaska,OIL,Environmentally Responsible,67.0586,-159.7075,"67.0586, -159.7075",,,,POWERPLANTS
Seward Oil Plant AK USA,13.3,United States of America,Alaska,OIL,Environmentally Responsible,59.5631,-150.2779,"59.5631, -150.2779",,,,POWERPLANTS
Snake River Oil Plant AK USA,11.1,United States of America,Alaska,OIL,Environmentally Responsible,64.8963,-163.975,"64.8963, -163.975",,,,POWERPLANTS
Thorne Bay Plant Oil Plant AK USA,1,United States of America,Alaska,OIL,Environmentally Responsible,55.9248,-131.1379,"55.9248, -131.1379",,,,POWERPLANTS
Togiak Oil Plant AK USA,2.1,United States of America,Alaska,OIL,Environmentally Responsible,59.8028,-158.2207,"59.8028, -158.2207",,,,POWERPLANTS
Tok Oil Plant AK USA,4.8,United States of America,Alaska,OIL,Environmentally Responsible,63.8718,-143.3641,"63.8718, -143.3641",,,,POWERPLANTS
Viking Oil Plant AK USA,1,United States of America,Alaska,OIL,Environmentally Responsible,55.9248,-131.1379,"55.9248, -131.1379",,,,POWERPLANTS
Westward Seafoods Oil Plant AK USA,6.6,United States of America,Alaska,OIL,Environmentally Responsible,53.4554,-167.0261,"53.4554, -167.0261",,,,POWERPLANTS
Nelson Plant Generators Oil Plant AZ USA,2.2,United States of America,Arizona,OIL,Environmentally Responsible,34.6077,-112.5462,"34.6077, -112.5462",,,,POWERPLANTS
Osceola Oil Plant AR USA,9.6,United States of America,Arkansas,OIL,Environmentally Responsible,35.7623,-90.0524,"35.7623, -90.0524",,,,POWERPLANTS
Loveridge Road Power Plant Oil Plant CA USA,20.5,United States of America,California,OIL,Environmentally Responsible,38.0144,-121.8602,"38.0144, -121.8602",,,,POWERPLANTS
Phillips 66 Carbon Plant Oil Plant CA USA,27.3,United States of America,California,OIL,Environmentally Responsible,38.0135,-122.2374,"38.0135, -122.2374",,,,POWERPLANTS
La Junta Oil Plant CO USA,19,United States of America,Colorado,OIL,Environmentally Responsible,37.8949,-103.7086,"37.8949, -103.7086",,,,POWERPLANTS
Trinidad Oil Plant CO USA,12.9,United States of America,Colorado,OIL,Environmentally Responsible,37.3131,-104.027,"37.3131, -104.027",,,,POWERPLANTS
Devon Station Oil Plant CT USA,398.2,United States of America,Connecticut,OIL,Environmentally Responsible,41.2083,-73.1092,"41.2083, -73.1092",,,,POWERPLANTS
NRG Norwalk Harbor Oil Plant CT USA,342.7,United States of America,Connecticut,OIL,Environmentally Responsible,41.0732,-73.4098,"41.0732, -73.4098",,,,POWERPLANTS
Delaware City 10 Oil Plant DE USA,18.5,United States of America,Delaware,OIL,Environmentally Responsible,39.6,-75.6167,"39.6, -75.6167",,,,POWERPLANTS
Hay Road CCGT Power Plant DE USA,1193,United States of America,Delaware,OIL,Environmentally Responsible,39.7436,-75.5072,"39.7436, -75.5072",Gas Turbine,Base/Intermediate Load,"New Castle County, DE, USA",POWERPLANTS
DeBary Oil Plant FL USA,860.8,United States of America,Florida,OIL,Environmentally Responsible,28.9047,-81.3319,"28.9047, -81.3319",,,,POWERPLANTS
Northside Generating Station Oil Plant FL USA,1407.1,United States of America,Florida,OIL,Environmentally Responsible,30.3644,-81.6236,"30.3644, -81.6236",,,,POWERPLANTS
3200 Wildwood Plaza Oil Plant GA USA,1.2,United States of America,Georgia,OIL,Environmentally Responsible,33.9492,-84.5715,"33.9492, -84.5715",,,,POWERPLANTS
Bank of America Plaza Oil Plant GA USA,3,United States of America,Georgia,OIL,Environmentally Responsible,33.7932,-84.4621,"33.7932, -84.4621",,,,POWERPLANTS
Kanoelehua Oil Plant HI USA,21,United States of America,Hawaii,OIL,Environmentally Responsible,19.6013,-155.5212,"19.6013, -155.5212",,,,POWERPLANTS
Kapaia Power Station Oil Plant HI USA,39.1,United States of America,Hawaii,OIL,Environmentally Responsible,21.9461,-159.3755,"21.9461, -159.3755",Gas Turbine,,"Kauai County, HI, USA",POWERPLANTS
Miki Basin Oil Plant HI USA,10.4,United States of America,Hawaii,OIL,Environmentally Responsible,20.866,-156.5713,"20.866, -156.5713",,,,POWERPLANTS
Tesoro Hawaii Oil Plant HI USA,20,United States of America,Hawaii,OIL,Environmentally Responsible,21.4875,-157.9817,"21.4875, -157.9817",,,,POWERPLANTS
Avenue A Generator Sets Oil Plant IL USA,3.6,United States of America,Illinois,OIL,Environmentally Responsible,41.7584,-89.917,"41.7584, -89.917",,,,POWERPLANTS
Carmi Oil Plant IL USA,16.3,United States of America,Illinois,OIL,Environmentally Responsible,38.0926,-88.1841,"38.0926, -88.1841",,,,POWERPLANTS
Hallock Oil Plant IL USA,12.8,United States of America,Illinois,OIL,Environmentally Responsible,40.7924,-89.7644,"40.7924, -89.7644",,,,POWERPLANTS
Parkside Oil Plant IL USA,6,United States of America,Illinois,OIL,Environmentally Responsible,40.4908,-88.8473,"40.4908, -88.8473",,,,POWERPLANTS
Red Bud Oil Plant IL USA,15,United States of America,Illinois,OIL,Environmentally Responsible,38.0537,-89.832,"38.0537, -89.832",,,,POWERPLANTS
State Farm Oil Plant IL USA,5.1,United States of America,Illinois,OIL,Environmentally Responsible,40.4936,-88.8535,"40.4936, -88.8535",,,,POWERPLANTS
Sullivan Oil Plant IL USA,18.5,United States of America,Illinois,OIL,Environmentally Responsible,39.6431,-88.6221,"39.6431, -88.6221",,,,POWERPLANTS
Alliant SBD 9106 Rockwell CR Oil Plant IA USA,16,United States of America,Iowa,OIL,Environmentally Responsible,42.075,-91.6023,"42.075, -91.6023",,,,POWERPLANTS
Alliant SBD 9107 Swift Oil Plant IA USA,11.4,United States of America,Iowa,OIL,Environmentally Responsible,42.0355,-93.0054,"42.0355, -93.0054",,,,POWERPLANTS
Alliant SBD 9302 Aegon NP Oil Plant IA USA,1.2,United States of America,Iowa,OIL,Environmentally Responsible,42.075,-91.6023,"42.075, -91.6023",,,,POWERPLANTS
Alliant SBD 9403 Aegon DC Oil Plant IA USA,4.2,United States of America,Iowa,OIL,Environmentally Responsible,42.075,-91.6023,"42.075, -91.6023",,,,POWERPLANTS
Alliant SBD 9901 GE Capital Oil Plant IA USA,1.1,United States of America,Iowa,OIL,Environmentally Responsible,42.075,-91.6023,"42.075, -91.6023",,,,POWERPLANTS
Alliant SBD0201 Penford Produc Oil Plant IA USA,6.1,United States of America,Iowa,OIL,Environmentally Responsible,42.075,-91.6023,"42.075, -91.6023",,,,POWERPLANTS
Alta Municipal Utilities Oil Plant IA USA,2.1,United States of America,Iowa,OIL,Environmentally Responsible,42.7373,-95.159,"42.7373, -95.159",,,,POWERPLANTS
Ames Diesel Generating Station Oil Plant IA USA,2,United States of America,Iowa,OIL,Environmentally Responsible,42.0343,-93.4709,"42.0343, -93.4709",,,,POWERPLANTS
Ames GT Oil Plant IA USA,22,United States of America,Iowa,OIL,Environmentally Responsible,42.0269,-93.5828,"42.0269, -93.5828",,,,POWERPLANTS
Bancroft Oil Plant IA USA,4.5,United States of America,Iowa,OIL,Environmentally Responsible,43.2062,-94.2167,"43.2062, -94.2167",,,,POWERPLANTS
Coon Rapids II Oil Plant IA USA,5.4,United States of America,Iowa,OIL,Environmentally Responsible,42.0362,-94.8607,"42.0362, -94.8607",,,,POWERPLANTS
Forest City Oil Plant IA USA,22,United States of America,Iowa,OIL,Environmentally Responsible,43.3769,-93.7379,"43.3769, -93.7379",,,,POWERPLANTS
Grundy Center Oil Plant IA USA,8.7,United States of America,Iowa,OIL,Environmentally Responsible,42.3994,-92.7977,"42.3994, -92.7977",,,,POWERPLANTS
Lamoni Municipal Utilities Oil Plant IA USA,5.4,United States of America,Iowa,OIL,Environmentally Responsible,40.7361,-93.787,"40.7361, -93.787",,,,POWERPLANTS
Marshalltown Oil Plant IA USA,202.2,United States of America,Iowa,OIL,Environmentally Responsible,42.0355,-93.0054,"42.0355, -93.0054",,,,POWERPLANTS
McGregor Oil Plant IA USA,2,United States of America,Iowa,OIL,Environmentally Responsible,42.8476,-91.3425,"42.8476, -91.3425",,,,POWERPLANTS
Pella Peaking Oil Plant IA USA,28,United States of America,Iowa,OIL,Environmentally Responsible,41.3355,-93.1017,"41.3355, -93.1017",,,,POWERPLANTS
Primghar Oil Plant IA USA,1.8,United States of America,Iowa,OIL,Environmentally Responsible,43.0838,-95.625,"43.0838, -95.625",,,,POWERPLANTS
Tipton Oil Plant IA USA,4.9,United States of America,Iowa,OIL,Environmentally Responsible,41.7723,-91.132,"41.7723, -91.132",,,,POWERPLANTS
West Bend Oil Plant IA USA,4.2,United States of America,Iowa,OIL,Environmentally Responsible,43.0826,-94.6881,"43.0826, -94.6881",,,,POWERPLANTS
Wilton Oil Plant IA USA,9.2,United States of America,Iowa,OIL,Environmentally Responsible,41.466,-91.076,"41.466, -91.076",,,,POWERPLANTS
Baldwin City Oil Plant KS USA,6.4,United States of America,Kansas,OIL,Environmentally Responsible,38.8803,-95.2891,"38.8803, -95.2891",,,,POWERPLANTS
Mulvane 2 Oil Plant KS USA,9.2,United States of America,Kansas,OIL,Environmentally Responsible,37.6803,-97.4536,"37.6803, -97.4536",,,,POWERPLANTS
St John Oil Plant KS USA,5.9,United States of America,Kansas,OIL,Environmentally Responsible,38.0228,-98.7151,"38.0228, -98.7151",,,,POWERPLANTS
Stafford Oil Plant KS USA,5.1,United States of America,Kansas,OIL,Environmentally Responsible,38.0228,-98.7151,"38.0228, -98.7151",,,,POWERPLANTS
CII Carbon LLC Oil Plant LA USA,46,United States of America,Louisiana,OIL,Environmentally Responsible,29.9376,-89.9796,"29.9376, -89.9796",,,,POWERPLANTS
Bar Harbor Oil Plant ME USA,8,United States of America,Maine,OIL,Environmentally Responsible,44.6824,-68.3473,"44.6824, -68.3473",,,,POWERPLANTS
Cape Gas Turbine Oil Plant ME USA,35,United States of America,Maine,OIL,Environmentally Responsible,43.8505,-70.4097,"43.8505, -70.4097",,,,POWERPLANTS
Berlin Oil Plant MD USA,9,United States of America,Maryland,OIL,Environmentally Responsible,38.221,-75.3595,"38.221, -75.3595",,,,POWERPLANTS
Easton 2 Oil Plant MD USA,38.8,United States of America,Maryland,OIL,Environmentally Responsible,38.7583,-76.143,"38.7583, -76.143",,,,POWERPLANTS
Panda Brandywine LP Oil Plant MD USA,288.8,United States of America,Maryland,OIL,Environmentally Responsible,38.6667,-76.8736,"38.6667, -76.8736",,,,POWERPLANTS
Smith Island Oil Plant MD USA,1.7,United States of America,Maryland,OIL,Environmentally Responsible,38.1223,-75.7446,"38.1223, -75.7446",,,,POWERPLANTS
Anderson Power Products Division Oil Plant MA USA,1,United States of America,Massachusetts,OIL,Environmentally Responsible,42.3468,-71.9077,"42.3468, -71.9077",,,,POWERPLANTS
Canal Oil Plant MA USA,1165,United States of America,Massachusetts,OIL,Environmentally Responsible,41.7694,-70.5097,"41.7694, -70.5097",,,,POWERPLANTS
Cherry Street Oil Plant MA USA,20.3,United States of America,Massachusetts,OIL,Environmentally Responsible,42.4819,-71.3944,"42.4819, -71.3944",,,,POWERPLANTS
Fellsway Development LLC Oil Plant MA USA,2.7,United States of America,Massachusetts,OIL,Environmentally Responsible,42.4819,-71.3944,"42.4819, -71.3944",,,,POWERPLANTS
West Tisbury Generating Facility Oil Plant MA USA,5.4,United States of America,Massachusetts,OIL,Environmentally Responsible,41.3896,-70.655,"41.3896, -70.655",,,,POWERPLANTS
Caro Oil Plant MI USA,9.4,United States of America,Michigan,OIL,Environmentally Responsible,43.4693,-83.4165,"43.4693, -83.4165",,,,POWERPLANTS
Colfax Oil Plant MI USA,13.5,United States of America,Michigan,OIL,Environmentally Responsible,42.6066,-83.9132,"42.6066, -83.9132",,,,POWERPLANTS
Croswell Oil Plant MI USA,5.1,United States of America,Michigan,OIL,Environmentally Responsible,43.4281,-82.8206,"43.4281, -82.8206",,,,POWERPLANTS
Dafter Oil Plant MI USA,9,United States of America,Michigan,OIL,Environmentally Responsible,46.3033,-84.5909,"46.3033, -84.5909",,,,POWERPLANTS
Dayton Oil Plant MI USA,10,United States of America,Michigan,OIL,Environmentally Responsible,42.2878,-83.2903,"42.2878, -83.2903",,,,POWERPLANTS
Diesel Plant Oil Plant MI USA,10,United States of America,Michigan,OIL,Environmentally Responsible,41.9173,-85.5324,"41.9173, -85.5324",,,,POWERPLANTS
Manistique Oil Plant MI USA,4.8,United States of America,Michigan,OIL,Environmentally Responsible,46.198,-86.1943,"46.198, -86.1943",,,,POWERPLANTS
Putnam Oil Plant MI USA,13.5,United States of America,Michigan,OIL,Environmentally Responsible,43.4693,-83.4165,"43.4693, -83.4165",,,,POWERPLANTS
Wilmot Oil Plant MI USA,13.5,United States of America,Michigan,OIL,Environmentally Responsible,43.4693,-83.4165,"43.4693, -83.4165",,,,POWERPLANTS
Norwood Hydro Power Plant NY USA,2,United States of America,New York,HYDRO,Environmentally Responsible,44.4878,-75.0712,"44.4878, -75.0712",,,,POWERPLANTS
Rio Hydro Power Plant NY USA,10,United States of America,New York,HYDRO,Environmentally Responsible,41.7173,-74.7722,"41.7173, -74.7722",,,,POWERPLANTS
School Street Hydro Power Plant NY USA,42,United States of America,New York,HYDRO,Environmentally Responsible,42.5985,-73.972,"42.5985, -73.972",,,,POWERPLANTS
South Colton Hydro Power Plant NY USA,21,United States of America,New York,HYDRO,Environmentally Responsible,44.4878,-75.0712,"44.4878, -75.0712",,,,POWERPLANTS
South Glens Falls Hydroelectric Hydro Power Plant NY USA,13.8,United States of America,New York,HYDRO,Environmentally Responsible,43.1054,-73.8668,"43.1054, -73.8668",,,,POWERPLANTS
Talcville Hydro Power Plant NY USA,1.1,United States of America,New York,HYDRO,Environmentally Responsible,44.4878,-75.0712,"44.4878, -75.0712",,,,POWERPLANTS
Valley Falls Hydroelectric Facility Hydro Power Plant NY USA,2.5,United States of America,New York,HYDRO,Environmentally Responsible,42.7056,-73.5101,"42.7056, -73.5101",,,,POWERPLANTS
Bear Creek Hydro Power Plant NC USA,9,United States of America,North Carolina,HYDRO,Environmentally Responsible,35.2821,-83.1382,"35.2821, -83.1382",,,,POWERPLANTS
Chatuge Hydro Power Plant NC USA,10,United States of America,North Carolina,HYDRO,Environmentally Responsible,35.0538,-83.7476,"35.0538, -83.7476",,,,POWERPLANTS
Marshall Hydro Power Plant NC USA,5,United States of America,North Carolina,HYDRO,Environmentally Responsible,35.8543,-82.7035,"35.8543, -82.7035",,,,POWERPLANTS
Tillery Hydro Power Plant NC USA,84,United States of America,North Carolina,HYDRO,Environmentally Responsible,35.327,-79.9037,"35.327, -79.9037",,,,POWERPLANTS
Kaw Hydro Hydro Power Plant OK USA,25.6,United States of America,Oklahoma,HYDRO,Environmentally Responsible,36.8182,-97.1456,"36.8182, -97.1456",,,,POWERPLANTS
Keystone Hydro Power Plant OK USA,70,United States of America,Oklahoma,HYDRO,Environmentally Responsible,36.1292,-95.9427,"36.1292, -95.9427",,,,POWERPLANTS
Markham Hydro Power Plant OK USA,120,United States of America,Oklahoma,HYDRO,Environmentally Responsible,36.3073,-95.2319,"36.3073, -95.2319",,,,POWERPLANTS
Robert S Kerr Hydro Power Plant OK USA,110,United States of America,Oklahoma,HYDRO,Environmentally Responsible,35.5046,-94.7531,"35.5046, -94.7531",,,,POWERPLANTS
Bend Hydro Power Plant OR USA,1.1,United States of America,Oregon,HYDRO,Environmentally Responsible,43.9081,-121.2258,"43.9081, -121.2258",,,,POWERPLANTS
Copper Dam Plant Hydro Power Plant OR USA,3,United States of America,Oregon,HYDRO,Environmentally Responsible,45.5144,-121.6489,"45.5144, -121.6489",,,,POWERPLANTS
Falls Creek Hydro Power Plant OR USA,4.1,United States of America,Oregon,HYDRO,Environmentally Responsible,44.4825,-122.5314,"44.4825, -122.5314",,,,POWERPLANTS
Hells Canyon Hydro Power Plant OR USA,391.5,United States of America,Oregon,HYDRO,Environmentally Responsible,45.5785,-117.1837,"45.5785, -117.1837",,,,POWERPLANTS
John C Boyle Hydro Power Plant OR USA,79.8,United States of America,Oregon,HYDRO,Environmentally Responsible,42.6822,-121.6467,"42.6822, -121.6467",,,,POWERPLANTS
Leaburg Hydro Power Plant OR USA,13.5,United States of America,Oregon,HYDRO,Environmentally Responsible,43.931,-122.8437,"43.931, -122.8437",,,,POWERPLANTS
